{"0-alter-johannisfriedhof-prager-strasse-04103-leipzig":{"category":"Bildung","title":"Alter Johannisfriedhof","longitude":12.3953192,"latitude":51.3321392,"entrance-suit-f-wheelchair":2,"lift-suit-f-wheelchair":0,"lift-avail":0,"toilet-avail":0,"toilet-suit-f-wheelchair":0,"parking-avail":1,"parking-f-disabled-avail":0,"help-for-hearing-imp":0,"help-for-blind":0,"general-help":0},"1-botanischer-garten-der-universitaet-leipzig-linn\u00e9str.-1-04103-leipzig":{"category":"Bildung","title":"Botanischer Garten der Universit\u00e4t Leipzig","longitude":12.39259,"latitude":51.32999,"entrance-suit-f-wheelchair":1,"lift-suit-f-wheelchair":0,"lift-avail":0,"toilet-avail":1,"toilet-suit-f-wheelchair":0,"parking-avail":1,"parking-f-disabled-avail":0,"help-for-hearing-imp":0,"help-for-blind":0,"general-help":1},"2-duft-und-tastgarten-am-botanischen-garten-friedenspark-am-hospitaltor-04103-leipzig":{"category":"Bildung","title":"Duft- und Tastgarten am Botanischen Garten","longitude":12.3891818,"latitude":51.3302732,"entrance-suit-f-wheelchair":2,"lift-suit-f-wheelchair":0,"lift-avail":0,"toilet-avail":0,"toilet-suit-f-wheelchair":0,"parking-avail":0,"parking-f-disabled-avail":0,"help-for-hearing-imp":0,"help-for-blind":1,"general-help":0},"3-freizeitpark-loessnig-am-silbersee-04279-leipzig":{"category":"Bildung","title":"Freizeitpark L\u00f6\u00dfnig","longitude":0,"latitude":0,"entrance-suit-f-wheelchair":2,"lift-suit-f-wheelchair":0,"lift-avail":0,"toilet-avail":0,"toilet-suit-f-wheelchair":0,"parking-avail":0,"parking-f-disabled-avail":0,"help-for-hearing-imp":0,"help-for-blind":0,"general-help":0},"4-stadtgarten-connewitz-kohrener-str.-_-burgstaedter-str.-eingang-kohrener-str.-04277-leipzig":{"category":"Bildung","title":"Stadtgarten Connewitz","longitude":12.3850938,"latitude":51.30352,"entrance-suit-f-wheelchair":1,"lift-suit-f-wheelchair":0,"lift-avail":0,"toilet-avail":0,"toilet-suit-f-wheelchair":0,"parking-avail":1,"parking-f-disabled-avail":0,"help-for-hearing-imp":0,"help-for-blind":0,"general-help":1},"5-voelkerschlachtdenkmal-str.-des-18.-oktober-100-04299-leipzig":{"category":"Bildung","title":"V\u00f6lkerschlachtdenkmal","longitude":12.3943653,"latitude":51.3222147,"entrance-suit-f-wheelchair":2,"lift-suit-f-wheelchair":1,"lift-avail":0,"toilet-avail":1,"toilet-suit-f-wheelchair":2,"parking-avail":1,"parking-f-disabled-avail":1,"help-for-hearing-imp":0,"help-for-blind":1,"general-help":1},"6-volkspark-kleinzschocher-kuechenholzwiese-04249-leipzig":{"category":"Bildung","title":"Volkspark Kleinzschocher","longitude":12.2965373,"latitude":51.2789889,"entrance-suit-f-wheelchair":2,"lift-suit-f-wheelchair":0,"lift-avail":0,"toilet-avail":0,"toilet-suit-f-wheelchair":0,"parking-avail":0,"parking-f-disabled-avail":0,"help-for-hearing-imp":0,"help-for-blind":0,"general-help":0},"7-wildpark-der-stadt-leipzig-koburger-strasse-12a-04277-leipzig":{"category":"Bildung","title":"Wildpark der Stadt Leipzig","longitude":12.372148,"latitude":51.2978292,"entrance-suit-f-wheelchair":2,"lift-suit-f-wheelchair":0,"lift-avail":0,"toilet-avail":1,"toilet-suit-f-wheelchair":2,"parking-avail":1,"parking-f-disabled-avail":1,"help-for-hearing-imp":0,"help-for-blind":1,"general-help":1},"8-zoologischer-garten-leipzig-gmbh-pfaffendorfer-str.-29-04105-leipzig":{"category":"Bildung","title":"Zoologischer Garten Leipzig (GmbH)","longitude":12.3689185,"latitude":51.3516682,"entrance-suit-f-wheelchair":2,"lift-suit-f-wheelchair":1,"lift-avail":0,"toilet-avail":1,"toilet-suit-f-wheelchair":2,"parking-avail":1,"parking-f-disabled-avail":1,"help-for-hearing-imp":0,"help-for-blind":1,"general-help":1},"9-europa-haus-leipzig-e.v.-markt-10-_-handwerkerpassage-04109-leipzig":{"category":"Bildung","title":"Europa - Haus Leipzig e.V.","longitude":12.3736659,"latitude":51.3406761,"entrance-suit-f-wheelchair":1,"lift-suit-f-wheelchair":0,"lift-avail":1,"toilet-avail":1,"toilet-suit-f-wheelchair":0,"parking-avail":0,"parking-f-disabled-avail":1,"help-for-hearing-imp":0,"help-for-blind":0,"general-help":1},"10-institut-francais-de-leipzig-thomaskirchhof-20-2.-etage-04109-leipzig":{"category":"Bildung","title":"Institut Francais de Leipzig","longitude":12.3720464,"latitude":51.3398754,"entrance-suit-f-wheelchair":0,"lift-suit-f-wheelchair":0,"lift-avail":0,"toilet-avail":0,"toilet-suit-f-wheelchair":0,"parking-avail":1,"parking-f-disabled-avail":0,"help-for-hearing-imp":0,"help-for-blind":0,"general-help":0},"11-polnisches-institut-markt-10-04109-leipzig":{"category":"Bildung","title":"Polnisches Institut","longitude":12.3737552,"latitude":51.3406878,"entrance-suit-f-wheelchair":1,"lift-suit-f-wheelchair":0,"lift-avail":1,"toilet-avail":1,"toilet-suit-f-wheelchair":0,"parking-avail":0,"parking-f-disabled-avail":0,"help-for-hearing-imp":0,"help-for-blind":0,"general-help":1},"12-generalkonsulat-der-usa-wilhelm-seyfferth-str.-4-04107-leipzig":{"category":"Bildung","title":"Generalkonsulat der USA","longitude":12.36772,"latitude":51.33389,"entrance-suit-f-wheelchair":0,"lift-suit-f-wheelchair":0,"lift-avail":0,"toilet-avail":1,"toilet-suit-f-wheelchair":0,"parking-avail":0,"parking-f-disabled-avail":0,"help-for-hearing-imp":0,"help-for-blind":0,"general-help":1},"13-schwedisches-honorarkonsulat-messe-allee-2-04356-leipzig":{"category":"Bildung","title":"Schwedisches Honorarkonsulat","longitude":12.3958258,"latitude":51.3939529,"entrance-suit-f-wheelchair":2,"lift-suit-f-wheelchair":0,"lift-avail":1,"toilet-avail":0,"toilet-suit-f-wheelchair":0,"parking-avail":1,"parking-f-disabled-avail":1,"help-for-hearing-imp":0,"help-for-blind":0,"general-help":0},"14-bibliotheca-albertina-universitaetsbibliothek-leipzig-beethovenstr.-6-04107-leipzig":{"category":"Bildung","title":"Bibliotheca Albertina - Universit\u00e4tsbibliothek Leipzig","longitude":12.36854,"latitude":51.33241,"entrance-suit-f-wheelchair":2,"lift-suit-f-wheelchair":1,"lift-avail":0,"toilet-avail":1,"toilet-suit-f-wheelchair":2,"parking-avail":1,"parking-f-disabled-avail":1,"help-for-hearing-imp":0,"help-for-blind":1,"general-help":1},"15-cospuden-parkfoyer_infopoint-brueckenstr.-04249-leipzig":{"category":"Bildung","title":"Cospuden - Parkfoyer\/Infopoint","longitude":12.3348431,"latitude":51.2992738,"entrance-suit-f-wheelchair":1,"lift-suit-f-wheelchair":0,"lift-avail":0,"toilet-avail":1,"toilet-suit-f-wheelchair":0,"parking-avail":1,"parking-f-disabled-avail":1,"help-for-hearing-imp":0,"help-for-blind":0,"general-help":0},"16-halle-14-zentrum-fuer-zeitgenoessische-kunst-spinnerei-7-04179-leipzig":{"category":"Bildung","title":"Halle 14 - Zentrum f\u00fcr zeitgen\u00f6ssische Kunst","longitude":12.3182245,"latitude":51.326537,"entrance-suit-f-wheelchair":2,"lift-suit-f-wheelchair":0,"lift-avail":0,"toilet-avail":1,"toilet-suit-f-wheelchair":2,"parking-avail":1,"parking-f-disabled-avail":1,"help-for-hearing-imp":0,"help-for-blind":0,"general-help":1},"17-kunsthalle-der-sparkasse-leipzig-otto-schill-str.-4a-04109-leipzig":{"category":"Bildung","title":"Kunsthalle der Sparkasse Leipzig","longitude":12.36986,"latitude":51.33842,"entrance-suit-f-wheelchair":2,"lift-suit-f-wheelchair":0,"lift-avail":1,"toilet-avail":0,"toilet-suit-f-wheelchair":0,"parking-avail":0,"parking-f-disabled-avail":0,"help-for-hearing-imp":0,"help-for-blind":0,"general-help":1},"18-durchblick-galerie-mainzer-str.-7-04109-leipzig":{"category":"Bildung","title":"Durchblick-Galerie","longitude":12.355162,"latitude":51.3366482,"entrance-suit-f-wheelchair":0,"lift-suit-f-wheelchair":0,"lift-avail":0,"toilet-avail":1,"toilet-suit-f-wheelchair":0,"parking-avail":0,"parking-f-disabled-avail":0,"help-for-hearing-imp":0,"help-for-blind":0,"general-help":1},"19-phyllodrom-e.v.-delitzscher-landstr.-38-04158-leipzig":{"category":"Bildung","title":"PHYLLODROM e.V.","longitude":12.3770428,"latitude":51.391676,"entrance-suit-f-wheelchair":0,"lift-suit-f-wheelchair":0,"lift-avail":0,"toilet-avail":1,"toilet-suit-f-wheelchair":0,"parking-avail":1,"parking-f-disabled-avail":0,"help-for-hearing-imp":0,"help-for-blind":0,"general-help":1},"20-plagwitz-konsumgenossenschaft-leipzig-eg-industriestr.-85-95-04229-leipzig":{"category":"Bildung","title":"Plagwitz - Konsumgenossenschaft Leipzig eG","longitude":12.3298173,"latitude":51.3280202,"entrance-suit-f-wheelchair":0,"lift-suit-f-wheelchair":0,"lift-avail":1,"toilet-avail":1,"toilet-suit-f-wheelchair":0,"parking-avail":1,"parking-f-disabled-avail":0,"help-for-hearing-imp":0,"help-for-blind":0,"general-help":1},"21-rathaussaal-rathaus-wiederitzsch-delitzscher-landstr.-55-04158-leipzig-wiederitzsch":{"category":"Bildung","title":"Rathaussaal - Rathaus Wiederitzsch","longitude":12.37363,"latitude":51.39367,"entrance-suit-f-wheelchair":0,"lift-suit-f-wheelchair":0,"lift-avail":0,"toilet-avail":1,"toilet-suit-f-wheelchair":0,"parking-avail":0,"parking-f-disabled-avail":0,"help-for-hearing-imp":0,"help-for-blind":0,"general-help":1},"22-galerie-am-nikolaikirchhof-verkaufsgalerie-ritterstr.-5-04109-leipzig":{"category":"Bildung","title":"Galerie am Nikolaikirchhof (Verkaufsgalerie)","longitude":12.3791334,"latitude":51.3409045,"entrance-suit-f-wheelchair":1,"lift-suit-f-wheelchair":0,"lift-avail":1,"toilet-avail":0,"toilet-suit-f-wheelchair":0,"parking-avail":1,"parking-f-disabled-avail":0,"help-for-hearing-imp":0,"help-for-blind":0,"general-help":1},"23-galerie-fuer-zeitgenoessische-kunst-leipzig-altbau-karl-tauchnitz-str.-11-04107-leipzig":{"category":"Bildung","title":"GALERIE F\u00dcR ZEITGEN\u00d6SSISCHE KUNST LEIPZIG - Altbau","longitude":12.36529,"latitude":51.33396,"entrance-suit-f-wheelchair":2,"lift-suit-f-wheelchair":0,"lift-avail":1,"toilet-avail":1,"toilet-suit-f-wheelchair":1,"parking-avail":1,"parking-f-disabled-avail":1,"help-for-hearing-imp":0,"help-for-blind":0,"general-help":1},"24-galerie-fuer-zeitgenoessische-kunst-leipzig-neubau-karl-tauchnitz-str.-11-04107-leipzig":{"category":"Bildung","title":"GALERIE F\u00dcR ZEITGEN\u00d6SSISCHE KUNST LEIPZIG - Neubau","longitude":12.36529,"latitude":51.33396,"entrance-suit-f-wheelchair":2,"lift-suit-f-wheelchair":0,"lift-avail":0,"toilet-avail":1,"toilet-suit-f-wheelchair":2,"parking-avail":1,"parking-f-disabled-avail":0,"help-for-hearing-imp":0,"help-for-blind":0,"general-help":1},"25-altes-rathaus-markt-1-04109-leipzig":{"category":"Bildung","title":"Altes Rathaus","longitude":12.3753349,"latitude":51.340378,"entrance-suit-f-wheelchair":1,"lift-suit-f-wheelchair":0,"lift-avail":1,"toilet-avail":1,"toilet-suit-f-wheelchair":2,"parking-avail":0,"parking-f-disabled-avail":0,"help-for-hearing-imp":0,"help-for-blind":0,"general-help":1},"26-antikenmuseum-der-universitaet-leipzig-nikolaikirchhof-2-04109-leipzig":{"category":"Bildung","title":"Antikenmuseum der Universit\u00e4t Leipzig","longitude":12.3783697,"latitude":51.3407897,"entrance-suit-f-wheelchair":1,"lift-suit-f-wheelchair":0,"lift-avail":1,"toilet-avail":1,"toilet-suit-f-wheelchair":1,"parking-avail":1,"parking-f-disabled-avail":1,"help-for-hearing-imp":0,"help-for-blind":0,"general-help":1},"27-bach-museum-im-bach-archiv-leipzig-thomaskirchhof-15-16-eg-und-1.-etage-04109-leipzig":{"category":"Bildung","title":"Bach-Museum im Bach-Archiv Leipzig","longitude":12.3724106,"latitude":51.338881,"entrance-suit-f-wheelchair":1,"lift-suit-f-wheelchair":1,"lift-avail":0,"toilet-avail":1,"toilet-suit-f-wheelchair":1,"parking-avail":1,"parking-f-disabled-avail":1,"help-for-hearing-imp":1,"help-for-blind":1,"general-help":1},"28-clown-museum-reiskestr.-12-04317-leipzig":{"category":"Bildung","title":"Clown - Museum","longitude":12.40515,"latitude":51.32853,"entrance-suit-f-wheelchair":0,"lift-suit-f-wheelchair":0,"lift-avail":0,"toilet-avail":0,"toilet-suit-f-wheelchair":0,"parking-avail":0,"parking-f-disabled-avail":0,"help-for-hearing-imp":0,"help-for-blind":0,"general-help":1},"29-da-capo-oldtimermuseum-und-eventhalle-karl-heine-str.-105-04229-leipzig":{"category":"Bildung","title":"Da Capo - Oldtimermuseum und Eventhalle","longitude":12.32587,"latitude":51.32909,"entrance-suit-f-wheelchair":2,"lift-suit-f-wheelchair":0,"lift-avail":0,"toilet-avail":1,"toilet-suit-f-wheelchair":1,"parking-avail":1,"parking-f-disabled-avail":1,"help-for-hearing-imp":0,"help-for-blind":0,"general-help":1},"30-deutsches-fotomuseum-markkleeberg-raschwitzer-str.-11b-04416-markkleeberg-west":{"category":"Bildung","title":"Deutsches Fotomuseum Markkleeberg","longitude":12.377924,"latitude":51.2859931,"entrance-suit-f-wheelchair":2,"lift-suit-f-wheelchair":0,"lift-avail":0,"toilet-avail":1,"toilet-suit-f-wheelchair":0,"parking-avail":1,"parking-f-disabled-avail":0,"help-for-hearing-imp":0,"help-for-blind":0,"general-help":1},"31-forum-1813-strasse-des-18.-oktober-100-04299-leipzig":{"category":"Bildung","title":"Forum 1813","longitude":12.3943653,"latitude":51.3222147,"entrance-suit-f-wheelchair":1,"lift-suit-f-wheelchair":0,"lift-avail":1,"toilet-avail":1,"toilet-suit-f-wheelchair":0,"parking-avail":1,"parking-f-disabled-avail":0,"help-for-hearing-imp":0,"help-for-blind":0,"general-help":1},"32-gedenkstaette-museum-in-der-runden-ecke-dittrichring-24-04109-leipzig":{"category":"Bildung","title":"Gedenkst\u00e4tte Museum in der \"Runden Ecke\"","longitude":12.3716104,"latitude":51.3411245,"entrance-suit-f-wheelchair":1,"lift-suit-f-wheelchair":0,"lift-avail":1,"toilet-avail":1,"toilet-suit-f-wheelchair":1,"parking-avail":0,"parking-f-disabled-avail":0,"help-for-hearing-imp":0,"help-for-blind":0,"general-help":1},"33-mendelssohn-haus-mit-museum-goldschmidtstr.-12-04103-leipzig":{"category":"Bildung","title":"Mendelssohn-Haus mit Museum","longitude":12.383284,"latitude":51.336288,"entrance-suit-f-wheelchair":2,"lift-suit-f-wheelchair":0,"lift-avail":1,"toilet-avail":1,"toilet-suit-f-wheelchair":0,"parking-avail":0,"parking-f-disabled-avail":0,"help-for-hearing-imp":0,"help-for-blind":1,"general-help":1},"34-museum-der-bildenden-kuenste-leipzig-katharinenstr.-10-04109-leipzig":{"category":"Bildung","title":"Museum der bildenden K\u00fcnste Leipzig","longitude":12.3757553,"latitude":51.3423734,"entrance-suit-f-wheelchair":2,"lift-suit-f-wheelchair":1,"lift-avail":0,"toilet-avail":1,"toilet-suit-f-wheelchair":1,"parking-avail":1,"parking-f-disabled-avail":1,"help-for-hearing-imp":0,"help-for-blind":1,"general-help":1},"35-museum-fuer-angewandte-kunst-im-grassi-johannisplatz-5-11-04103-leipzig":{"category":"Bildung","title":"Museum f\u00fcr Angewandte Kunst im Grassi","longitude":12.3878496,"latitude":51.3369175,"entrance-suit-f-wheelchair":2,"lift-suit-f-wheelchair":1,"lift-avail":0,"toilet-avail":1,"toilet-suit-f-wheelchair":2,"parking-avail":1,"parking-f-disabled-avail":1,"help-for-hearing-imp":1,"help-for-blind":0,"general-help":1},"36-museum-fuer-druckkunst-leipzig-nonnenstr.-38-04229-leipzig":{"category":"Bildung","title":"Museum f\u00fcr Druckkunst Leipzig","longitude":12.343595,"latitude":51.3291332,"entrance-suit-f-wheelchair":0,"lift-suit-f-wheelchair":0,"lift-avail":1,"toilet-avail":1,"toilet-suit-f-wheelchair":0,"parking-avail":0,"parking-f-disabled-avail":0,"help-for-hearing-imp":1,"help-for-blind":1,"general-help":1},"37-musikinstrumentenmuseum-der-universitaet-leipzig-im-grassi-johannisplatz-5-11-04103-leipzig":{"category":"Bildung","title":"Musikinstrumentenmuseum der Universit\u00e4t Leipzig im Grassi","longitude":12.3878496,"latitude":51.3369175,"entrance-suit-f-wheelchair":2,"lift-suit-f-wheelchair":0,"lift-avail":1,"toilet-avail":1,"toilet-suit-f-wheelchair":2,"parking-avail":1,"parking-f-disabled-avail":1,"help-for-hearing-imp":0,"help-for-blind":1,"general-help":1},"38-saechsisches-apothekenmuseum-leipzig-thomaskirchhof-12-04109-leipzig":{"category":"Bildung","title":"S\u00e4chsisches Apothekenmuseum Leipzig","longitude":12.372853,"latitude":51.3388267,"entrance-suit-f-wheelchair":0,"lift-suit-f-wheelchair":0,"lift-avail":1,"toilet-avail":1,"toilet-suit-f-wheelchair":0,"parking-avail":1,"parking-f-disabled-avail":1,"help-for-hearing-imp":0,"help-for-blind":0,"general-help":1},"39-saechsisches-psychiatriemuseum-friesenstr.-7-04177-leipzig":{"category":"Bildung","title":"S\u00e4chsisches Psychiatriemuseum","longitude":12.3295204,"latitude":51.34091,"entrance-suit-f-wheelchair":0,"lift-suit-f-wheelchair":0,"lift-avail":0,"toilet-avail":1,"toilet-suit-f-wheelchair":0,"parking-avail":1,"parking-f-disabled-avail":0,"help-for-hearing-imp":0,"help-for-blind":0,"general-help":1},"40-saechsisches-staatsarchiv-leipzig-schongauer-str.-1-04329-leipzig":{"category":"Bildung","title":"S\u00e4chsisches Staatsarchiv Leipzig","longitude":12.473399,"latitude":51.3456877,"entrance-suit-f-wheelchair":1,"lift-suit-f-wheelchair":0,"lift-avail":1,"toilet-avail":1,"toilet-suit-f-wheelchair":0,"parking-avail":1,"parking-f-disabled-avail":1,"help-for-hearing-imp":0,"help-for-blind":0,"general-help":1},"41-schillerhaus-leipzig-gohlis-menckestr.-42-04155-leipzig":{"category":"Bildung","title":"Schillerhaus Leipzig - Gohlis","longitude":12.3628899,"latitude":51.3587831,"entrance-suit-f-wheelchair":0,"lift-suit-f-wheelchair":0,"lift-avail":0,"toilet-avail":1,"toilet-suit-f-wheelchair":0,"parking-avail":0,"parking-f-disabled-avail":0,"help-for-hearing-imp":0,"help-for-blind":0,"general-help":1},"42-sparkassenmuseum-der-sparkasse-leipzig-schillerstr.-4-04109-leipzig":{"category":"Bildung","title":"Sparkassenmuseum der Sparkasse Leipzig","longitude":12.3765352,"latitude":51.3371268,"entrance-suit-f-wheelchair":2,"lift-suit-f-wheelchair":1,"lift-avail":0,"toilet-avail":1,"toilet-suit-f-wheelchair":0,"parking-avail":1,"parking-f-disabled-avail":1,"help-for-hearing-imp":0,"help-for-blind":0,"general-help":1},"43-stadtarchiv-leipzig-torgauer-str.-74-04318-leipzig":{"category":"Bildung","title":"Stadtarchiv Leipzig","longitude":12.4203403,"latitude":51.3475035,"entrance-suit-f-wheelchair":1,"lift-suit-f-wheelchair":0,"lift-avail":1,"toilet-avail":1,"toilet-suit-f-wheelchair":1,"parking-avail":1,"parking-f-disabled-avail":0,"help-for-hearing-imp":0,"help-for-blind":0,"general-help":1},"44-stadtgeschichtliches-museum-leipzig-neubau-boettchergaesschen-3-04109-leipzig":{"category":"Bildung","title":"Stadtgeschichtliches Museum Leipzig - Neubau","longitude":12.37643,"latitude":51.34183,"entrance-suit-f-wheelchair":1,"lift-suit-f-wheelchair":1,"lift-avail":0,"toilet-avail":1,"toilet-suit-f-wheelchair":2,"parking-avail":0,"parking-f-disabled-avail":0,"help-for-hearing-imp":0,"help-for-blind":1,"general-help":1},"45-voelkerkundemuseum-zu-leipzig-im-grassi-johannisplatz-5-11-04103-leipzig":{"category":"Bildung","title":"V\u00f6lkerkundemuseum zu Leipzig im Grassi","longitude":12.3878496,"latitude":51.3369175,"entrance-suit-f-wheelchair":2,"lift-suit-f-wheelchair":0,"lift-avail":1,"toilet-avail":1,"toilet-suit-f-wheelchair":2,"parking-avail":1,"parking-f-disabled-avail":1,"help-for-hearing-imp":1,"help-for-blind":1,"general-help":1},"46-voelkerschlachtdenkmal-04299-leipzig":{"category":"Bildung","title":"V\u00f6lkerschlachtdenkmal","longitude":0,"latitude":0,"entrance-suit-f-wheelchair":0,"lift-suit-f-wheelchair":1,"lift-avail":0,"toilet-avail":0,"toilet-suit-f-wheelchair":0,"parking-avail":0,"parking-f-disabled-avail":0,"help-for-hearing-imp":0,"help-for-blind":1,"general-help":0},"47-zeitgeschichtliches-forum-leipzig-grimmaische-str.-6-04109-leipzig":{"category":"Bildung","title":"Zeitgeschichtliches Forum Leipzig","longitude":12.3756999,"latitude":51.3400001,"entrance-suit-f-wheelchair":2,"lift-suit-f-wheelchair":1,"lift-avail":0,"toilet-avail":1,"toilet-suit-f-wheelchair":1,"parking-avail":0,"parking-f-disabled-avail":0,"help-for-hearing-imp":0,"help-for-blind":1,"general-help":0},"48-aktive-senioren-leipzig-e.v.-doellingstr.-31-04328-leipzig":{"category":"Bildung","title":"Aktive Senioren Leipzig e.V.","longitude":12.45101,"latitude":51.34775,"entrance-suit-f-wheelchair":0,"lift-suit-f-wheelchair":0,"lift-avail":0,"toilet-avail":1,"toilet-suit-f-wheelchair":0,"parking-avail":1,"parking-f-disabled-avail":0,"help-for-hearing-imp":0,"help-for-blind":0,"general-help":1},"49-am-viadukt-horst-heilmann-str.-4-04159-leipzig":{"category":"Bildung","title":"Am Viadukt","longitude":12.3304804,"latitude":51.3735073,"entrance-suit-f-wheelchair":2,"lift-suit-f-wheelchair":0,"lift-avail":0,"toilet-avail":1,"toilet-suit-f-wheelchair":0,"parking-avail":0,"parking-f-disabled-avail":0,"help-for-hearing-imp":0,"help-for-blind":0,"general-help":1},"50-begegnungsstaette-der-wogetra-johannisplatz-2-04103-leipzig":{"category":"Bildung","title":"Begegnungsst\u00e4tte der WOGETRA","longitude":12.38578,"latitude":51.33883,"entrance-suit-f-wheelchair":2,"lift-suit-f-wheelchair":0,"lift-avail":0,"toilet-avail":1,"toilet-suit-f-wheelchair":2,"parking-avail":1,"parking-f-disabled-avail":1,"help-for-hearing-imp":0,"help-for-blind":0,"general-help":1},"51-begegnungszentrum-im-gruenen-big-breisgaustr.-53-04209-leipzig":{"category":"Bildung","title":"Begegnungszentrum im Gr\u00fcnen (BiG)","longitude":12.2860732,"latitude":51.3171148,"entrance-suit-f-wheelchair":2,"lift-suit-f-wheelchair":0,"lift-avail":0,"toilet-avail":1,"toilet-suit-f-wheelchair":1,"parking-avail":1,"parking-f-disabled-avail":1,"help-for-hearing-imp":0,"help-for-blind":0,"general-help":1},"52-begegnungszentrum-wiederitzsch-delitzscher-landstr.-38-04158-leipzig-wiederitzsch":{"category":"Bildung","title":"Begegnungszentrum Wiederitzsch","longitude":12.3770428,"latitude":51.391676,"entrance-suit-f-wheelchair":1,"lift-suit-f-wheelchair":0,"lift-avail":0,"toilet-avail":1,"toilet-suit-f-wheelchair":0,"parking-avail":1,"parking-f-disabled-avail":0,"help-for-hearing-imp":0,"help-for-blind":0,"general-help":1},"53-durchblick-e.v.-friesenstr.-7-04177-leipzig":{"category":"Bildung","title":"Durchblick e.V.","longitude":12.3295204,"latitude":51.34091,"entrance-suit-f-wheelchair":0,"lift-suit-f-wheelchair":0,"lift-avail":0,"toilet-avail":1,"toilet-suit-f-wheelchair":0,"parking-avail":1,"parking-f-disabled-avail":0,"help-for-hearing-imp":0,"help-for-blind":0,"general-help":1},"54-haus-des-hoerens-dresdner-str.-78-04317-leipzig":{"category":"Bildung","title":"Haus des H\u00f6rens","longitude":12.4048933,"latitude":51.3373866,"entrance-suit-f-wheelchair":2,"lift-suit-f-wheelchair":1,"lift-avail":0,"toilet-avail":1,"toilet-suit-f-wheelchair":1,"parking-avail":1,"parking-f-disabled-avail":1,"help-for-hearing-imp":1,"help-for-blind":0,"general-help":1},"55-haus-leben-leipzig-friesenstr.-8-04177-leipzig":{"category":"Bildung","title":"Haus Leben Leipzig","longitude":12.330197,"latitude":51.3416972,"entrance-suit-f-wheelchair":2,"lift-suit-f-wheelchair":1,"lift-avail":0,"toilet-avail":1,"toilet-suit-f-wheelchair":1,"parking-avail":1,"parking-f-disabled-avail":1,"help-for-hearing-imp":0,"help-for-blind":0,"general-help":1},"56-haus-ohne-barrieren-villa-davignon-friedrich-ebert-str.-77-04109-leipzig":{"category":"Bildung","title":"Haus ohne Barrieren - Villa Davignon","longitude":12.360121,"latitude":51.3404415,"entrance-suit-f-wheelchair":1,"lift-suit-f-wheelchair":0,"lift-avail":1,"toilet-avail":1,"toilet-suit-f-wheelchair":2,"parking-avail":0,"parking-f-disabled-avail":0,"help-for-hearing-imp":1,"help-for-blind":1,"general-help":1},"57-heinrich-budde-haus-luetzowstr.-19-04157-leipzig":{"category":"Bildung","title":"Heinrich-Budde-Haus","longitude":12.3737799,"latitude":51.3637858,"entrance-suit-f-wheelchair":0,"lift-suit-f-wheelchair":0,"lift-avail":0,"toilet-avail":1,"toilet-suit-f-wheelchair":0,"parking-avail":1,"parking-f-disabled-avail":1,"help-for-hearing-imp":0,"help-for-blind":0,"general-help":1},"58-kaenguruh-suchtkontakt-beethovenstr.-21-04107-leipzig":{"category":"Bildung","title":"K\u00e4nguruh - SuchtKontakt","longitude":12.3665364,"latitude":51.3318245,"entrance-suit-f-wheelchair":0,"lift-suit-f-wheelchair":0,"lift-avail":1,"toilet-avail":1,"toilet-suit-f-wheelchair":0,"parking-avail":0,"parking-f-disabled-avail":0,"help-for-hearing-imp":0,"help-for-blind":1,"general-help":1},"59-kulturhaus-grosse-eiche-leipziger-str.-81-04178-leipzig":{"category":"Bildung","title":"Kulturhaus Gro\u00dfe Eiche","longitude":12.29024,"latitude":51.35957,"entrance-suit-f-wheelchair":2,"lift-suit-f-wheelchair":0,"lift-avail":1,"toilet-avail":1,"toilet-suit-f-wheelchair":0,"parking-avail":1,"parking-f-disabled-avail":0,"help-for-hearing-imp":0,"help-for-blind":1,"general-help":1},"60-messemagistrale-stadtteilzentrum-strasse-des-18.-oktober-10-a-04103-leipzig":{"category":"Bildung","title":"Messemagistrale - Stadtteilzentrum","longitude":12.3860176,"latitude":51.326756,"entrance-suit-f-wheelchair":2,"lift-suit-f-wheelchair":0,"lift-avail":0,"toilet-avail":1,"toilet-suit-f-wheelchair":2,"parking-avail":1,"parking-f-disabled-avail":0,"help-for-hearing-imp":0,"help-for-blind":0,"general-help":1},"61-muetterzentrum-gruenau-potschkaustr.-50-04209-leipzig":{"category":"Bildung","title":"M\u00fctterzentrum - Gr\u00fcnau","longitude":12.28215,"latitude":51.31373,"entrance-suit-f-wheelchair":0,"lift-suit-f-wheelchair":0,"lift-avail":0,"toilet-avail":1,"toilet-suit-f-wheelchair":0,"parking-avail":0,"parking-f-disabled-avail":0,"help-for-hearing-imp":0,"help-for-blind":0,"general-help":1},"62-muetterzentrum-paunsdorf-wiesenstr.-20-04329-leipzig":{"category":"Bildung","title":"M\u00fctterzentrum - Paunsdorf","longitude":12.4652065,"latitude":51.3571744,"entrance-suit-f-wheelchair":0,"lift-suit-f-wheelchair":0,"lift-avail":0,"toilet-avail":1,"toilet-suit-f-wheelchair":0,"parking-avail":0,"parking-f-disabled-avail":0,"help-for-hearing-imp":0,"help-for-blind":0,"general-help":0},"63-muetterzentrum-thekla-klingenthaler-str.-14-a-04349-leipzig":{"category":"Bildung","title":"M\u00fctterzentrum - Thekla","longitude":12.43335,"latitude":51.37626,"entrance-suit-f-wheelchair":2,"lift-suit-f-wheelchair":0,"lift-avail":0,"toilet-avail":1,"toilet-suit-f-wheelchair":0,"parking-avail":0,"parking-f-disabled-avail":0,"help-for-hearing-imp":0,"help-for-blind":0,"general-help":1},"64-muetterzentrum-treffpunkt-linde-walter-heinze-str.-22-hh-04229-leipzig":{"category":"Bildung","title":"M\u00fctterzentrum - Treffpunkt Linde","longitude":12.3358107,"latitude":51.3300747,"entrance-suit-f-wheelchair":0,"lift-suit-f-wheelchair":0,"lift-avail":0,"toilet-avail":0,"toilet-suit-f-wheelchair":0,"parking-avail":0,"parking-f-disabled-avail":0,"help-for-hearing-imp":0,"help-for-blind":0,"general-help":1},"65-philippus-leipzig-aurelienstr.-54-04177-leipzig":{"category":"Bildung","title":"Philippus Leipzig","longitude":12.329374,"latitude":51.3319365,"entrance-suit-f-wheelchair":1,"lift-suit-f-wheelchair":0,"lift-avail":0,"toilet-avail":1,"toilet-suit-f-wheelchair":1,"parking-avail":1,"parking-f-disabled-avail":1,"help-for-hearing-imp":1,"help-for-blind":0,"general-help":1},"66-seniorenbuero-stadtbezirk-alt-west-saalfelder-str.-12-04179-leipzig":{"category":"Bildung","title":"Seniorenb\u00fcro Stadtbezirk Alt-West","longitude":12.3186878,"latitude":51.3324153,"entrance-suit-f-wheelchair":2,"lift-suit-f-wheelchair":0,"lift-avail":0,"toilet-avail":1,"toilet-suit-f-wheelchair":1,"parking-avail":1,"parking-f-disabled-avail":1,"help-for-hearing-imp":0,"help-for-blind":0,"general-help":1},"67-seniorenbuero-stadtbezirk-mitte-johannisplatz-2-04103-leipzig":{"category":"Bildung","title":"Seniorenb\u00fcro Stadtbezirk Mitte","longitude":12.38578,"latitude":51.33883,"entrance-suit-f-wheelchair":2,"lift-suit-f-wheelchair":0,"lift-avail":0,"toilet-avail":1,"toilet-suit-f-wheelchair":2,"parking-avail":1,"parking-f-disabled-avail":1,"help-for-hearing-imp":1,"help-for-blind":1,"general-help":1},"68-seniorenbuero-stadtbezirk-nordost-kieler-str.-63-65-04357-leipzig":{"category":"Bildung","title":"Seniorenb\u00fcro Stadtbezirk Nordost","longitude":12.4161292,"latitude":51.3752426,"entrance-suit-f-wheelchair":1,"lift-suit-f-wheelchair":0,"lift-avail":0,"toilet-avail":1,"toilet-suit-f-wheelchair":0,"parking-avail":0,"parking-f-disabled-avail":0,"help-for-hearing-imp":0,"help-for-blind":0,"general-help":1},"69-seniorenbuero-stadtbezirk-nordwest-horst-heilmann-str.-4-04159-leipzig":{"category":"Bildung","title":"Seniorenb\u00fcro Stadtbezirk Nordwest","longitude":12.3304804,"latitude":51.3735073,"entrance-suit-f-wheelchair":2,"lift-suit-f-wheelchair":0,"lift-avail":0,"toilet-avail":1,"toilet-suit-f-wheelchair":0,"parking-avail":0,"parking-f-disabled-avail":0,"help-for-hearing-imp":0,"help-for-blind":0,"general-help":1},"70-seniorenbuero-stadtbezirk-sued-prinz-eugen-str.-1-04277-leipzig":{"category":"Bildung","title":"Seniorenb\u00fcro Stadtbezirk S\u00fcd","longitude":12.37437,"latitude":51.30352,"entrance-suit-f-wheelchair":2,"lift-suit-f-wheelchair":0,"lift-avail":0,"toilet-avail":1,"toilet-suit-f-wheelchair":0,"parking-avail":0,"parking-f-disabled-avail":0,"help-for-hearing-imp":0,"help-for-blind":0,"general-help":1},"71-seniorenbuero-stadtbezirk-suedost-stoetteritzer-str.-28-04317-leipzig":{"category":"Bildung","title":"Seniorenb\u00fcro Stadtbezirk S\u00fcdost","longitude":12.4067662,"latitude":51.3260534,"entrance-suit-f-wheelchair":2,"lift-suit-f-wheelchair":1,"lift-avail":0,"toilet-avail":1,"toilet-suit-f-wheelchair":2,"parking-avail":1,"parking-f-disabled-avail":1,"help-for-hearing-imp":0,"help-for-blind":0,"general-help":0},"72-seniorenwohnpark-connewitz-biedermannstr.-40-04277-leipzig":{"category":"Bildung","title":"Seniorenwohnpark Connewitz","longitude":12.3767469,"latitude":51.3068053,"entrance-suit-f-wheelchair":2,"lift-suit-f-wheelchair":0,"lift-avail":0,"toilet-avail":1,"toilet-suit-f-wheelchair":1,"parking-avail":0,"parking-f-disabled-avail":0,"help-for-hearing-imp":0,"help-for-blind":0,"general-help":1},"73-tageszentrum-vielfalt-mit-theater-ahnungslos-oberdorfstr.-15-04299-leipzig":{"category":"Bildung","title":"Tageszentrum vielfalt mit Theater aHnungslos","longitude":12.42415,"latitude":51.32174,"entrance-suit-f-wheelchair":0,"lift-suit-f-wheelchair":0,"lift-avail":0,"toilet-avail":1,"toilet-suit-f-wheelchair":0,"parking-avail":1,"parking-f-disabled-avail":0,"help-for-hearing-imp":0,"help-for-blind":0,"general-help":1},"74-vereinshaus-wasser-stadt-leipzig-e.v.-industriestr.-72-76-04229-leipzig":{"category":"Bildung","title":"Vereinshaus Wasser-Stadt-Leipzig e.V.","longitude":12.3335239,"latitude":51.3280481,"entrance-suit-f-wheelchair":2,"lift-suit-f-wheelchair":0,"lift-avail":0,"toilet-avail":1,"toilet-suit-f-wheelchair":0,"parking-avail":1,"parking-f-disabled-avail":0,"help-for-hearing-imp":0,"help-for-blind":0,"general-help":1},"75-zur-mockauer-post-kieler-str.-63-65-04357-leipzig":{"category":"Bildung","title":"Zur Mockauer Post","longitude":12.4161292,"latitude":51.3752426,"entrance-suit-f-wheelchair":1,"lift-suit-f-wheelchair":0,"lift-avail":0,"toilet-avail":1,"toilet-suit-f-wheelchair":0,"parking-avail":0,"parking-f-disabled-avail":0,"help-for-hearing-imp":0,"help-for-blind":0,"general-help":1},"76-deutsches-literaturinstitut-leipzig-waechterstr.-34-04107-leipzig":{"category":"Bildung","title":"DEUTSCHES LITERATURINSTITUT LEIPZIG","longitude":12.36754,"latitude":51.33381,"entrance-suit-f-wheelchair":0,"lift-suit-f-wheelchair":0,"lift-avail":0,"toilet-avail":1,"toilet-suit-f-wheelchair":0,"parking-avail":1,"parking-f-disabled-avail":1,"help-for-hearing-imp":0,"help-for-blind":0,"general-help":1},"77-geistes-und-sozialwissenschaftliche-fakultaet-der-universitaet-leipzig-johannisgasse-26-04103-leipzig":{"category":"Bildung","title":"Geistes- und Sozialwissenschaftliche Fakult\u00e4t der Universit\u00e4t Leipzig","longitude":12.3854596,"latitude":51.3370498,"entrance-suit-f-wheelchair":1,"lift-suit-f-wheelchair":0,"lift-avail":1,"toilet-avail":1,"toilet-suit-f-wheelchair":1,"parking-avail":0,"parking-f-disabled-avail":0,"help-for-hearing-imp":0,"help-for-blind":1,"general-help":1},"78-geographie-johannisallee-19-04103-leipzig":{"category":"Bildung","title":"Geographie","longitude":12.3944931,"latitude":51.3315524,"entrance-suit-f-wheelchair":0,"lift-suit-f-wheelchair":0,"lift-avail":0,"toilet-avail":1,"toilet-suit-f-wheelchair":0,"parking-avail":0,"parking-f-disabled-avail":0,"help-for-hearing-imp":0,"help-for-blind":0,"general-help":1},"79-geowissenschaften-talstr.-35-04103-leipzig":{"category":"Bildung","title":"Geowissenschaften","longitude":12.38584,"latitude":51.33194,"entrance-suit-f-wheelchair":1,"lift-suit-f-wheelchair":0,"lift-avail":1,"toilet-avail":1,"toilet-suit-f-wheelchair":0,"parking-avail":0,"parking-f-disabled-avail":0,"help-for-hearing-imp":0,"help-for-blind":0,"general-help":1},"80-hochschule-fuer-musik-und-theater-felix-mendelssohn-bartholdy-leipzig-grassistr.-8-04107-leipzig":{"category":"Bildung","title":"Hochschule f\u00fcr Musik und Theater \"Felix Mendelssohn Bartholdy\" Leipzig","longitude":12.36693,"latitude":51.33209,"entrance-suit-f-wheelchair":0,"lift-suit-f-wheelchair":1,"lift-avail":0,"toilet-avail":1,"toilet-suit-f-wheelchair":1,"parking-avail":1,"parking-f-disabled-avail":1,"help-for-hearing-imp":0,"help-for-blind":0,"general-help":1},"81-hochschule-fuer-telekommunikation-leipzig-gustav-freytag-str.-43-45-04277-leipzig":{"category":"Bildung","title":"Hochschule f\u00fcr Telekommunikation Leipzig","longitude":12.37492,"latitude":51.31287,"entrance-suit-f-wheelchair":1,"lift-suit-f-wheelchair":0,"lift-avail":1,"toilet-avail":1,"toilet-suit-f-wheelchair":1,"parking-avail":1,"parking-f-disabled-avail":0,"help-for-hearing-imp":0,"help-for-blind":0,"general-help":1},"82-institut-fuer-informatik-und-rechenzentrum-interim-johannisgasse-26-04103-leipzig":{"category":"Bildung","title":"Institut f\u00fcr Informatik und Rechenzentrum - Interim","longitude":12.3854596,"latitude":51.3370498,"entrance-suit-f-wheelchair":2,"lift-suit-f-wheelchair":0,"lift-avail":1,"toilet-avail":1,"toilet-suit-f-wheelchair":1,"parking-avail":0,"parking-f-disabled-avail":0,"help-for-hearing-imp":0,"help-for-blind":1,"general-help":1},"83-physik-linn\u00e9str.-5-04103-leipzig":{"category":"Bildung","title":"Physik","longitude":12.391913,"latitude":51.326965,"entrance-suit-f-wheelchair":1,"lift-suit-f-wheelchair":0,"lift-avail":1,"toilet-avail":1,"toilet-suit-f-wheelchair":1,"parking-avail":0,"parking-f-disabled-avail":0,"help-for-hearing-imp":0,"help-for-blind":0,"general-help":1},"84-rechtswissenschaftliche-fakultaet-burgstr.-27-04109-leipzig":{"category":"Bildung","title":"Rechtswissenschaftliche Fakult\u00e4t","longitude":12.3736356,"latitude":51.3376842,"entrance-suit-f-wheelchair":2,"lift-suit-f-wheelchair":1,"lift-avail":0,"toilet-avail":1,"toilet-suit-f-wheelchair":2,"parking-avail":1,"parking-f-disabled-avail":1,"help-for-hearing-imp":0,"help-for-blind":0,"general-help":1},"85-sportwissenschaftliche-fakultaet-jahnallee-59-04109-leipzig":{"category":"Bildung","title":"Sportwissenschaftliche Fakult\u00e4t","longitude":12.3511434,"latitude":51.339969,"entrance-suit-f-wheelchair":2,"lift-suit-f-wheelchair":0,"lift-avail":0,"toilet-avail":1,"toilet-suit-f-wheelchair":2,"parking-avail":1,"parking-f-disabled-avail":0,"help-for-hearing-imp":0,"help-for-blind":0,"general-help":1},"86-deutsche-nationalbibliothek-leipzig-bis-2006-deutsche-buecherei-deutscher-platz-1-04103-leipzig":{"category":"Bildung","title":"Deutsche Nationalbibliothek Leipzig bis 2006 \"Deutsche B\u00fccherei\"","longitude":12.3962302,"latitude":51.3220223,"entrance-suit-f-wheelchair":2,"lift-suit-f-wheelchair":1,"lift-avail":0,"toilet-avail":1,"toilet-suit-f-wheelchair":1,"parking-avail":1,"parking-f-disabled-avail":1,"help-for-hearing-imp":0,"help-for-blind":1,"general-help":1},"87-deutsche-zentralbuecherei-fuer-blinde-dzb-gustav-adolf-str.-7-04105-leipzig":{"category":"Bildung","title":"Deutsche Zentralb\u00fccherei f\u00fcr Blinde (DZB)","longitude":12.3659864,"latitude":51.34489,"entrance-suit-f-wheelchair":1,"lift-suit-f-wheelchair":0,"lift-avail":1,"toilet-avail":1,"toilet-suit-f-wheelchair":1,"parking-avail":1,"parking-f-disabled-avail":1,"help-for-hearing-imp":0,"help-for-blind":1,"general-help":1},"88-monaliesa-feministische-bibliothek-im-lotta-e.v.-bernhard-goering-str.-152-04277-leipzig":{"category":"Bildung","title":"MONAliesA - Feministische Bibliothek im Lotta e.V.","longitude":12.3761968,"latitude":51.3110022,"entrance-suit-f-wheelchair":1,"lift-suit-f-wheelchair":1,"lift-avail":0,"toilet-avail":1,"toilet-suit-f-wheelchair":1,"parking-avail":1,"parking-f-disabled-avail":1,"help-for-hearing-imp":0,"help-for-blind":0,"general-help":1},"89-stadtgeschichtliches-museum-leipzig-bibliothek-boettchergaesschen-3-04109-leipzig":{"category":"Bildung","title":"Stadtgeschichtliches Museum Leipzig - Bibliothek","longitude":12.37643,"latitude":51.34183,"entrance-suit-f-wheelchair":1,"lift-suit-f-wheelchair":1,"lift-avail":0,"toilet-avail":1,"toilet-suit-f-wheelchair":2,"parking-avail":0,"parking-f-disabled-avail":0,"help-for-hearing-imp":0,"help-for-blind":0,"general-help":1},"90-stadtbibliothek-leipzig-wilhelm-leuschner-platz-10_11-04107-leipzig":{"category":"Bildung","title":"Stadtbibliothek Leipzig","longitude":12.37497,"latitude":51.33416,"entrance-suit-f-wheelchair":2,"lift-suit-f-wheelchair":1,"lift-avail":0,"toilet-avail":1,"toilet-suit-f-wheelchair":2,"parking-avail":1,"parking-f-disabled-avail":1,"help-for-hearing-imp":1,"help-for-blind":0,"general-help":1},"91-bibliothek-boehlitz-ehrenberg-leipziger-str.-81-04178-leipzig-boehlitz-ehrenberg":{"category":"Bildung","title":"Bibliothek B\u00f6hlitz - Ehrenberg","longitude":12.29024,"latitude":51.35957,"entrance-suit-f-wheelchair":2,"lift-suit-f-wheelchair":0,"lift-avail":1,"toilet-avail":1,"toilet-suit-f-wheelchair":1,"parking-avail":1,"parking-f-disabled-avail":0,"help-for-hearing-imp":0,"help-for-blind":0,"general-help":1},"92-bibliothek-gohlis-georg-schumann-str.-105-04155-leipzig":{"category":"Bildung","title":"Bibliothek Gohlis","longitude":12.362399,"latitude":51.3624549,"entrance-suit-f-wheelchair":2,"lift-suit-f-wheelchair":1,"lift-avail":0,"toilet-avail":1,"toilet-suit-f-wheelchair":2,"parking-avail":0,"parking-f-disabled-avail":0,"help-for-hearing-imp":0,"help-for-blind":1,"general-help":0},"93-bibliothek-gruenau-mitte-stuttgarter-allee-15-04209-leipzig":{"category":"Bildung","title":"Bibliothek Gr\u00fcnau-Mitte","longitude":12.29108,"latitude":51.31665,"entrance-suit-f-wheelchair":0,"lift-suit-f-wheelchair":0,"lift-avail":0,"toilet-avail":1,"toilet-suit-f-wheelchair":0,"parking-avail":0,"parking-f-disabled-avail":0,"help-for-hearing-imp":0,"help-for-blind":0,"general-help":1},"94-bibliothek-gruenau-nord-plovdiver-str.-40-04205-leipzig":{"category":"Bildung","title":"Bibliothek Gr\u00fcnau-Nord","longitude":12.26907,"latitude":51.3217,"entrance-suit-f-wheelchair":0,"lift-suit-f-wheelchair":0,"lift-avail":0,"toilet-avail":1,"toilet-suit-f-wheelchair":0,"parking-avail":0,"parking-f-disabled-avail":0,"help-for-hearing-imp":0,"help-for-blind":0,"general-help":1},"95-bibliothek-gruenau-sued-an-der-kotsche-11-13-04207-leipzig":{"category":"Bildung","title":"Bibliothek Gr\u00fcnau-S\u00fcd","longitude":12.2671566,"latitude":51.309039,"entrance-suit-f-wheelchair":2,"lift-suit-f-wheelchair":0,"lift-avail":1,"toilet-avail":1,"toilet-suit-f-wheelchair":1,"parking-avail":0,"parking-f-disabled-avail":0,"help-for-hearing-imp":0,"help-for-blind":0,"general-help":1},"96-bibliothek-holzhausen-arthur-polenz-str.-12-04288-leipzig":{"category":"Bildung","title":"Bibliothek Holzhausen","longitude":12.45528,"latitude":51.30534,"entrance-suit-f-wheelchair":0,"lift-suit-f-wheelchair":0,"lift-avail":0,"toilet-avail":1,"toilet-suit-f-wheelchair":0,"parking-avail":1,"parking-f-disabled-avail":0,"help-for-hearing-imp":0,"help-for-blind":1,"general-help":1},"97-bibliothek-luetzschena-stahmeln-am-brunnen-4-04159-leipzig-luetzschena-stahmeln":{"category":"Bildung","title":"Bibliothek L\u00fctzschena - Stahmeln","longitude":12.271302,"latitude":51.383528,"entrance-suit-f-wheelchair":0,"lift-suit-f-wheelchair":0,"lift-avail":0,"toilet-avail":1,"toilet-suit-f-wheelchair":0,"parking-avail":1,"parking-f-disabled-avail":0,"help-for-hearing-imp":0,"help-for-blind":0,"general-help":1},"98-bibliothek-mockau-essener-str.-102-04357-leipzig":{"category":"Bildung","title":"Bibliothek Mockau","longitude":12.4116907,"latitude":51.3750233,"entrance-suit-f-wheelchair":2,"lift-suit-f-wheelchair":1,"lift-avail":0,"toilet-avail":1,"toilet-suit-f-wheelchair":1,"parking-avail":1,"parking-f-disabled-avail":0,"help-for-hearing-imp":0,"help-for-blind":0,"general-help":1},"99-bibliothek-paunsdorf-platanenstr.-37-04329-leipzig":{"category":"Bildung","title":"Bibliothek Paunsdorf","longitude":12.46215,"latitude":51.35599,"entrance-suit-f-wheelchair":0,"lift-suit-f-wheelchair":0,"lift-avail":0,"toilet-avail":1,"toilet-suit-f-wheelchair":0,"parking-avail":0,"parking-f-disabled-avail":0,"help-for-hearing-imp":0,"help-for-blind":0,"general-help":1},"100-bibliothek-plagwitz-georg-maurer-bibliothek-zschochersche-str.-14-04229-leipzig":{"category":"Bildung","title":"Bibliothek Plagwitz \"Georg-Maurer-Bibliothek\"","longitude":12.3391396,"latitude":51.3335664,"entrance-suit-f-wheelchair":0,"lift-suit-f-wheelchair":0,"lift-avail":0,"toilet-avail":1,"toilet-suit-f-wheelchair":0,"parking-avail":1,"parking-f-disabled-avail":1,"help-for-hearing-imp":0,"help-for-blind":0,"general-help":1},"101-bibliothek-reudnitz-dresdner-str.-78-80-04317-leipzig":{"category":"Bildung","title":"Bibliothek Reudnitz","longitude":12.4048933,"latitude":51.3373866,"entrance-suit-f-wheelchair":2,"lift-suit-f-wheelchair":1,"lift-avail":0,"toilet-avail":1,"toilet-suit-f-wheelchair":1,"parking-avail":1,"parking-f-disabled-avail":1,"help-for-hearing-imp":0,"help-for-blind":0,"general-help":0},"102-bibliothek-schoenefeld-shukowstr.-56-04347-leipzig":{"category":"Bildung","title":"Bibliothek Sch\u00f6nefeld","longitude":12.41566,"latitude":51.35591,"entrance-suit-f-wheelchair":1,"lift-suit-f-wheelchair":0,"lift-avail":0,"toilet-avail":1,"toilet-suit-f-wheelchair":0,"parking-avail":0,"parking-f-disabled-avail":0,"help-for-hearing-imp":0,"help-for-blind":0,"general-help":1},"103-bibliothek-suedvorstadt-walter-hofmann-steinstr.-42-04275-leipzig":{"category":"Bildung","title":"Bibliothek S\u00fcdvorstadt \"Walter Hofmann\"","longitude":12.37572,"latitude":51.31729,"entrance-suit-f-wheelchair":1,"lift-suit-f-wheelchair":0,"lift-avail":1,"toilet-avail":1,"toilet-suit-f-wheelchair":1,"parking-avail":0,"parking-f-disabled-avail":0,"help-for-hearing-imp":0,"help-for-blind":0,"general-help":1},"104-bibliothek-volkmarsdorf-torgauer-platz-3-2.-etage-04315-leipzig":{"category":"Bildung","title":"Bibliothek Volkmarsdorf","longitude":12.4152346,"latitude":51.3460507,"entrance-suit-f-wheelchair":2,"lift-suit-f-wheelchair":0,"lift-avail":1,"toilet-avail":1,"toilet-suit-f-wheelchair":1,"parking-avail":1,"parking-f-disabled-avail":1,"help-for-hearing-imp":0,"help-for-blind":0,"general-help":1},"105-bibliothek-wiederitzsch-zur-schule-10-a-04158-leipzig":{"category":"Bildung","title":"Bibliothek Wiederitzsch","longitude":12.37299,"latitude":51.39356,"entrance-suit-f-wheelchair":2,"lift-suit-f-wheelchair":1,"lift-avail":0,"toilet-avail":1,"toilet-suit-f-wheelchair":0,"parking-avail":0,"parking-f-disabled-avail":0,"help-for-hearing-imp":0,"help-for-blind":0,"general-help":1},"106-fahrbibliothek-an-der-kotsche-11-13-04207-leipzig":{"category":"Bildung","title":"Fahrbibliothek","longitude":12.2671566,"latitude":51.309039,"entrance-suit-f-wheelchair":0,"lift-suit-f-wheelchair":0,"lift-avail":0,"toilet-avail":0,"toilet-suit-f-wheelchair":0,"parking-avail":0,"parking-f-disabled-avail":0,"help-for-hearing-imp":0,"help-for-blind":0,"general-help":0},"107-33.-schule-anhalter-str.-1-04129-leipzig":{"category":"Bildung","title":"33. Schule","longitude":12.38864,"latitude":51.36154,"entrance-suit-f-wheelchair":2,"lift-suit-f-wheelchair":0,"lift-avail":1,"toilet-avail":1,"toilet-suit-f-wheelchair":2,"parking-avail":0,"parking-f-disabled-avail":0,"help-for-hearing-imp":0,"help-for-blind":0,"general-help":1},"108-39.-schule-gustav-kuehn-str.-1-04159-leipzig":{"category":"Bildung","title":"39. Schule","longitude":12.341,"latitude":51.36719,"entrance-suit-f-wheelchair":2,"lift-suit-f-wheelchair":0,"lift-avail":1,"toilet-avail":1,"toilet-suit-f-wheelchair":0,"parking-avail":1,"parking-f-disabled-avail":1,"help-for-hearing-imp":0,"help-for-blind":0,"general-help":0},"109-christoph-arnold-schule-gaswerksweg-1-04319-leipzig":{"category":"Bildung","title":"Christoph-Arnold-Schule","longitude":12.48812,"latitude":51.34063,"entrance-suit-f-wheelchair":2,"lift-suit-f-wheelchair":0,"lift-avail":0,"toilet-avail":1,"toilet-suit-f-wheelchair":1,"parking-avail":1,"parking-f-disabled-avail":0,"help-for-hearing-imp":0,"help-for-blind":0,"general-help":1},"110-erich-zeigner-schule-erich-zeigner-allee-24-04229-leipzig":{"category":"Bildung","title":"Erich-Zeigner-Schule","longitude":12.3396535,"latitude":51.3299277,"entrance-suit-f-wheelchair":2,"lift-suit-f-wheelchair":1,"lift-avail":0,"toilet-avail":1,"toilet-suit-f-wheelchair":2,"parking-avail":1,"parking-f-disabled-avail":1,"help-for-hearing-imp":0,"help-for-blind":0,"general-help":1},"111-evangelisches-schulzentrum-neubau-schletterstr.-7-04107-leipzig":{"category":"Bildung","title":"Evangelisches Schulzentrum - Neubau","longitude":12.3770225,"latitude":51.3304063,"entrance-suit-f-wheelchair":2,"lift-suit-f-wheelchair":1,"lift-avail":0,"toilet-avail":1,"toilet-suit-f-wheelchair":1,"parking-avail":0,"parking-f-disabled-avail":0,"help-for-hearing-imp":0,"help-for-blind":0,"general-help":1},"112-montessori-schulzentrum-leipzig-alte-salzstr.-61-65-04209-leipzig":{"category":"Bildung","title":"Montessori-Schulzentrum Leipzig","longitude":12.29989,"latitude":51.32122,"entrance-suit-f-wheelchair":2,"lift-suit-f-wheelchair":1,"lift-avail":0,"toilet-avail":1,"toilet-suit-f-wheelchair":1,"parking-avail":1,"parking-f-disabled-avail":1,"help-for-hearing-imp":0,"help-for-blind":1,"general-help":1},"113-nachbarschaftsschule-haus-1-gemeindeamtsstrasse-8_10-04177-leipzig":{"category":"Bildung","title":"Nachbarschaftsschule Haus 1","longitude":12.3327639,"latitude":51.3371785,"entrance-suit-f-wheelchair":2,"lift-suit-f-wheelchair":1,"lift-avail":0,"toilet-avail":1,"toilet-suit-f-wheelchair":1,"parking-avail":1,"parking-f-disabled-avail":0,"help-for-hearing-imp":0,"help-for-blind":0,"general-help":0},"114-pablo-neruda-schule-tarostr.-6-04103-leipzig":{"category":"Bildung","title":"Pablo-Neruda-Schule","longitude":12.38683,"latitude":51.32531,"entrance-suit-f-wheelchair":2,"lift-suit-f-wheelchair":1,"lift-avail":0,"toilet-avail":1,"toilet-suit-f-wheelchair":2,"parking-avail":0,"parking-f-disabled-avail":0,"help-for-hearing-imp":0,"help-for-blind":0,"general-help":0},"115-68.-oberschule-breitenfelder-str.-19-04155-leipzig":{"category":"Bildung","title":"68. Oberschule","longitude":12.36138,"latitude":51.36378,"entrance-suit-f-wheelchair":2,"lift-suit-f-wheelchair":1,"lift-avail":0,"toilet-avail":1,"toilet-suit-f-wheelchair":2,"parking-avail":1,"parking-f-disabled-avail":1,"help-for-hearing-imp":0,"help-for-blind":0,"general-help":1},"116-apollonia-von-wiedebach-schule-arno-nitzsche-str.-7-04277-leipzig":{"category":"Bildung","title":"Apollonia-von-Wiedebach-Schule","longitude":12.3763888,"latitude":51.3103562,"entrance-suit-f-wheelchair":2,"lift-suit-f-wheelchair":1,"lift-avail":0,"toilet-avail":1,"toilet-suit-f-wheelchair":2,"parking-avail":0,"parking-f-disabled-avail":0,"help-for-hearing-imp":0,"help-for-blind":0,"general-help":1},"117-evangelisches-schulzentrum-altbau-schletterstr.-7-04107-leipzig":{"category":"Bildung","title":"Evangelisches Schulzentrum - Altbau","longitude":12.3770225,"latitude":51.3304063,"entrance-suit-f-wheelchair":1,"lift-suit-f-wheelchair":1,"lift-avail":0,"toilet-avail":1,"toilet-suit-f-wheelchair":2,"parking-avail":0,"parking-f-disabled-avail":0,"help-for-hearing-imp":0,"help-for-blind":0,"general-help":1},"118-immanuel-kant-schule-scharnhorststr.-15-04275-leipzig":{"category":"Bildung","title":"Immanuel - Kant - Schule","longitude":12.3722339,"latitude":51.3197864,"entrance-suit-f-wheelchair":2,"lift-suit-f-wheelchair":0,"lift-avail":1,"toilet-avail":0,"toilet-suit-f-wheelchair":2,"parking-avail":0,"parking-f-disabled-avail":0,"help-for-hearing-imp":0,"help-for-blind":0,"general-help":0},"119-leipzig-kolleg-institut-zum-erwerb-der-hochschulfeife-czermaks-garten-8-04103-leipzig":{"category":"Bildung","title":"Leipzig-Kolleg Institut zum Erwerb der Hochschulfeife","longitude":12.38711,"latitude":51.34187,"entrance-suit-f-wheelchair":1,"lift-suit-f-wheelchair":1,"lift-avail":0,"toilet-avail":1,"toilet-suit-f-wheelchair":2,"parking-avail":1,"parking-f-disabled-avail":1,"help-for-hearing-imp":0,"help-for-blind":0,"general-help":1},"120-rahn-schulen-musikalisch-sportliches-gymnasium-salomonstr.-10-04103-leipzig":{"category":"Bildung","title":"Rahn-Schulen Musikalisch-Sportliches Gymnasium","longitude":12.3894488,"latitude":51.339675,"entrance-suit-f-wheelchair":2,"lift-suit-f-wheelchair":1,"lift-avail":0,"toilet-avail":1,"toilet-suit-f-wheelchair":2,"parking-avail":0,"parking-f-disabled-avail":0,"help-for-hearing-imp":0,"help-for-blind":0,"general-help":1},"121-wilhelm-ostwald-schule-gymnasium-willi-bredel-str.-15-04279-leipzig":{"category":"Bildung","title":"Wilhelm-Ostwald-Schule (Gymnasium)","longitude":12.40243,"latitude":51.30021,"entrance-suit-f-wheelchair":2,"lift-suit-f-wheelchair":1,"lift-avail":0,"toilet-avail":1,"toilet-suit-f-wheelchair":2,"parking-avail":1,"parking-f-disabled-avail":1,"help-for-hearing-imp":0,"help-for-blind":0,"general-help":1},"122-berufliches-schulzentrum-1-wirtschaft-und-verwaltung-crednerstr.-1-04289-leipzig":{"category":"Bildung","title":"Berufliches Schulzentrum 1 - Wirtschaft und Verwaltung","longitude":12.42843,"latitude":51.3044079,"entrance-suit-f-wheelchair":2,"lift-suit-f-wheelchair":1,"lift-avail":0,"toilet-avail":1,"toilet-suit-f-wheelchair":2,"parking-avail":1,"parking-f-disabled-avail":1,"help-for-hearing-imp":0,"help-for-blind":0,"general-help":1},"123-adolph-diesterweg-schule-portitzer-str.-1-04318-leipzig":{"category":"Bildung","title":"Adolph-Diesterweg-Schule","longitude":12.4252807,"latitude":51.3440666,"entrance-suit-f-wheelchair":1,"lift-suit-f-wheelchair":0,"lift-avail":0,"toilet-avail":0,"toilet-suit-f-wheelchair":0,"parking-avail":0,"parking-f-disabled-avail":0,"help-for-hearing-imp":0,"help-for-blind":0,"general-help":0},"124-dr.-georg-sacke-schule-morawitzstr.-2-04289-leipzig":{"category":"Bildung","title":"Dr.-Georg-Sacke-Schule","longitude":12.44245,"latitude":51.3062,"entrance-suit-f-wheelchair":0,"lift-suit-f-wheelchair":0,"lift-avail":0,"toilet-avail":0,"toilet-suit-f-wheelchair":0,"parking-avail":0,"parking-f-disabled-avail":0,"help-for-hearing-imp":0,"help-for-blind":0,"general-help":0},"125-ernst-zinna-schule-wincklerstr.-3-04279-leipzig":{"category":"Bildung","title":"Ernst-Zinna-Schule","longitude":12.39544,"latitude":51.28686,"entrance-suit-f-wheelchair":0,"lift-suit-f-wheelchair":0,"lift-avail":0,"toilet-avail":0,"toilet-suit-f-wheelchair":0,"parking-avail":0,"parking-f-disabled-avail":0,"help-for-hearing-imp":0,"help-for-blind":0,"general-help":0},"126-foerderzentrum-sprachheilschule-kaethe-kollwitz-leipzig-friedrich-dittes-str.-9-04318-leipzig":{"category":"Bildung","title":"F\u00f6rderzentrum Sprachheilschule \"K\u00e4the Kollwitz\" Leipzig","longitude":12.4113,"latitude":51.33603,"entrance-suit-f-wheelchair":2,"lift-suit-f-wheelchair":0,"lift-avail":0,"toilet-avail":0,"toilet-suit-f-wheelchair":0,"parking-avail":1,"parking-f-disabled-avail":1,"help-for-hearing-imp":0,"help-for-blind":0,"general-help":0},"127-fritz-gietzelt-schule-kantatenweg-40-04229-leipzig":{"category":"Bildung","title":"Fritz-Gietzelt-Schule","longitude":12.33251,"latitude":51.31649,"entrance-suit-f-wheelchair":1,"lift-suit-f-wheelchair":0,"lift-avail":1,"toilet-avail":1,"toilet-suit-f-wheelchair":1,"parking-avail":0,"parking-f-disabled-avail":0,"help-for-hearing-imp":0,"help-for-blind":0,"general-help":0},"128-johann-heinrich-pestalozzi-schule-hannoversche-str.-2-04157-leipzig":{"category":"Bildung","title":"Johann-Heinrich-Pestalozzi-Schule","longitude":12.36368,"latitude":51.37495,"entrance-suit-f-wheelchair":0,"lift-suit-f-wheelchair":0,"lift-avail":0,"toilet-avail":0,"toilet-suit-f-wheelchair":0,"parking-avail":0,"parking-f-disabled-avail":0,"help-for-hearing-imp":0,"help-for-blind":0,"general-help":0},"129-lindenhofschule-delitzscher-str.-110-04129-leipzig":{"category":"Bildung","title":"Lindenhofschule","longitude":12.38636,"latitude":51.37005,"entrance-suit-f-wheelchair":0,"lift-suit-f-wheelchair":0,"lift-avail":0,"toilet-avail":0,"toilet-suit-f-wheelchair":0,"parking-avail":0,"parking-f-disabled-avail":0,"help-for-hearing-imp":0,"help-for-blind":0,"general-help":0},"130-saechsische-landesschule-fuer-hoergeschaedigte-foerderzentrum-samuel-heinicke-karl-siegismund-str.-2-04317-leipzig":{"category":"Bildung","title":"S\u00e4chsische Landesschule f\u00fcr H\u00f6rgesch\u00e4digte F\u00f6rderzentrum Samuel Heinicke","longitude":12.3981,"latitude":51.32815,"entrance-suit-f-wheelchair":2,"lift-suit-f-wheelchair":0,"lift-avail":1,"toilet-avail":1,"toilet-suit-f-wheelchair":1,"parking-avail":1,"parking-f-disabled-avail":1,"help-for-hearing-imp":1,"help-for-blind":0,"general-help":1},"131-schule-gruenau-miltitzer-weg-1-04205-leipzig":{"category":"Bildung","title":"Schule Gr\u00fcnau","longitude":12.26543,"latitude":51.32169,"entrance-suit-f-wheelchair":0,"lift-suit-f-wheelchair":0,"lift-avail":0,"toilet-avail":0,"toilet-suit-f-wheelchair":0,"parking-avail":0,"parking-f-disabled-avail":0,"help-for-hearing-imp":0,"help-for-blind":0,"general-help":0},"132-schule-rosenweg-rosenweg-59-04209-leipzig":{"category":"Bildung","title":"Schule Rosenweg","longitude":12.29739,"latitude":51.3229,"entrance-suit-f-wheelchair":2,"lift-suit-f-wheelchair":0,"lift-avail":1,"toilet-avail":1,"toilet-suit-f-wheelchair":1,"parking-avail":0,"parking-f-disabled-avail":0,"help-for-hearing-imp":0,"help-for-blind":1,"general-help":1},"133-schule-schloss-schoenefeld-e.v.-zeumer-str.-1-2-04347-leipzig":{"category":"Bildung","title":"Schule Schlo\u00df Sch\u00f6nefeld e.V.","longitude":12.40607,"latitude":51.35943,"entrance-suit-f-wheelchair":2,"lift-suit-f-wheelchair":1,"lift-avail":0,"toilet-avail":1,"toilet-suit-f-wheelchair":1,"parking-avail":1,"parking-f-disabled-avail":1,"help-for-hearing-imp":0,"help-for-blind":0,"general-help":0},"134-schule-thonberg-riebeckstr.-50-04317-leipzig":{"category":"Bildung","title":"Schule Thonberg","longitude":12.402143,"latitude":51.3274162,"entrance-suit-f-wheelchair":0,"lift-suit-f-wheelchair":0,"lift-avail":0,"toilet-avail":0,"toilet-suit-f-wheelchair":0,"parking-avail":0,"parking-f-disabled-avail":0,"help-for-hearing-imp":0,"help-for-blind":0,"general-help":0},"135-alte-strasse-alte-str.-2-04229-leipzig":{"category":"Bildung","title":"Alte Stra\u00dfe","longitude":12.34192,"latitude":51.3316,"entrance-suit-f-wheelchair":0,"lift-suit-f-wheelchair":0,"lift-avail":0,"toilet-avail":0,"toilet-suit-f-wheelchair":0,"parking-avail":0,"parking-f-disabled-avail":0,"help-for-hearing-imp":0,"help-for-blind":0,"general-help":0},"136-am-kulkwitzer-see-zingster-str.-2-c-04207-leipzig":{"category":"Bildung","title":"Am Kulkwitzer See","longitude":12.2616572,"latitude":51.3109927,"entrance-suit-f-wheelchair":0,"lift-suit-f-wheelchair":0,"lift-avail":0,"toilet-avail":0,"toilet-suit-f-wheelchair":0,"parking-avail":0,"parking-f-disabled-avail":0,"help-for-hearing-imp":0,"help-for-blind":0,"general-help":0},"137-an-der-lehde-an-der-lehde-12-b-04179-leipzig":{"category":"Bildung","title":"An der Lehde","longitude":12.32218,"latitude":51.34556,"entrance-suit-f-wheelchair":0,"lift-suit-f-wheelchair":0,"lift-avail":0,"toilet-avail":0,"toilet-suit-f-wheelchair":0,"parking-avail":0,"parking-f-disabled-avail":0,"help-for-hearing-imp":0,"help-for-blind":0,"general-help":0},"138-arthur-nagel-strasse-arthur-nagel-str.-1-a_b-04249-leipzig":{"category":"Bildung","title":"Arthur-Nagel-Stra\u00dfe","longitude":12.3237417,"latitude":51.3073579,"entrance-suit-f-wheelchair":0,"lift-suit-f-wheelchair":0,"lift-avail":0,"toilet-avail":0,"toilet-suit-f-wheelchair":0,"parking-avail":0,"parking-f-disabled-avail":0,"help-for-hearing-imp":0,"help-for-blind":0,"general-help":0},"139-baerchenland-pistorisstr.-10-04229-leipzig":{"category":"Bildung","title":"B\u00e4rchenland","longitude":12.34227,"latitude":51.31567,"entrance-suit-f-wheelchair":0,"lift-suit-f-wheelchair":0,"lift-avail":0,"toilet-avail":0,"toilet-suit-f-wheelchair":0,"parking-avail":0,"parking-f-disabled-avail":0,"help-for-hearing-imp":0,"help-for-blind":0,"general-help":0},"140-bauernhofkindergarten-moelkau-im-oekogut-kelbestr.-3-04316-leipzig":{"category":"Bildung","title":"Bauernhofkindergarten M\u00f6lkau im \u00d6kogut","longitude":12.45162,"latitude":51.32685,"entrance-suit-f-wheelchair":0,"lift-suit-f-wheelchair":0,"lift-avail":0,"toilet-avail":0,"toilet-suit-f-wheelchair":0,"parking-avail":0,"parking-f-disabled-avail":0,"help-for-hearing-imp":0,"help-for-blind":0,"general-help":0},"141-blauer-elefant-kinderhaus-mit-integrativer-kindertagesstaette-tarostr.-17-19-04103-leipzig":{"category":"Bildung","title":"Blauer Elefant - Kinderhaus mit Integrativer Kindertagesst\u00e4tte","longitude":12.388308,"latitude":51.323277,"entrance-suit-f-wheelchair":1,"lift-suit-f-wheelchair":0,"lift-avail":0,"toilet-avail":1,"toilet-suit-f-wheelchair":1,"parking-avail":0,"parking-f-disabled-avail":0,"help-for-hearing-imp":0,"help-for-blind":0,"general-help":0},"142-bummi-yorckstr.-43-a_b-04159-leipzig":{"category":"Bildung","title":"Bummi","longitude":12.3436006,"latitude":51.3699986,"entrance-suit-f-wheelchair":0,"lift-suit-f-wheelchair":0,"lift-avail":0,"toilet-avail":0,"toilet-suit-f-wheelchair":0,"parking-avail":0,"parking-f-disabled-avail":0,"help-for-hearing-imp":0,"help-for-blind":0,"general-help":0},"143-eisenbahnstrasse-eisenbahnstr.-52-a_b-04315-leipzig":{"category":"Bildung","title":"Eisenbahnstra\u00dfe","longitude":12.4023774,"latitude":51.3458191,"entrance-suit-f-wheelchair":0,"lift-suit-f-wheelchair":0,"lift-avail":0,"toilet-avail":0,"toilet-suit-f-wheelchair":0,"parking-avail":0,"parking-f-disabled-avail":0,"help-for-hearing-imp":0,"help-for-blind":0,"general-help":0},"144-elsbethstift-elsbethstr.-38-04155-leipzig":{"category":"Bildung","title":"Elsbethstift","longitude":12.36276,"latitude":51.36395,"entrance-suit-f-wheelchair":0,"lift-suit-f-wheelchair":0,"lift-avail":0,"toilet-avail":0,"toilet-suit-f-wheelchair":0,"parking-avail":0,"parking-f-disabled-avail":0,"help-for-hearing-imp":0,"help-for-blind":0,"general-help":0},"145-gruenauer-allee-gruenauer-allee-18-04209-leipzig":{"category":"Bildung","title":"Gr\u00fcnauer Allee","longitude":12.3069739,"latitude":51.31824,"entrance-suit-f-wheelchair":0,"lift-suit-f-wheelchair":0,"lift-avail":0,"toilet-avail":0,"toilet-suit-f-wheelchair":0,"parking-avail":0,"parking-f-disabled-avail":0,"help-for-hearing-imp":0,"help-for-blind":0,"general-help":0},"146-hand-in-hand-kinderkrippe-und-kindergarten-linn\u00e9str.-12-04103-leipzig":{"category":"Bildung","title":"Hand in Hand - Kinderkrippe und Kindergarten","longitude":12.39243,"latitude":51.32602,"entrance-suit-f-wheelchair":0,"lift-suit-f-wheelchair":0,"lift-avail":0,"toilet-avail":0,"toilet-suit-f-wheelchair":0,"parking-avail":0,"parking-f-disabled-avail":0,"help-for-hearing-imp":0,"help-for-blind":0,"general-help":0},"147-haus-kinderland-neptunweg-29-a-04205-leipzig":{"category":"Bildung","title":"Haus Kinderland","longitude":12.269104,"latitude":51.3244204,"entrance-suit-f-wheelchair":0,"lift-suit-f-wheelchair":0,"lift-avail":0,"toilet-avail":0,"toilet-suit-f-wheelchair":0,"parking-avail":0,"parking-f-disabled-avail":0,"help-for-hearing-imp":0,"help-for-blind":0,"general-help":0},"148-igelnest-weissdornstr.-2-04209-leipzig":{"category":"Bildung","title":"Igelnest","longitude":12.29445,"latitude":51.32182,"entrance-suit-f-wheelchair":0,"lift-suit-f-wheelchair":0,"lift-avail":0,"toilet-avail":0,"toilet-suit-f-wheelchair":0,"parking-avail":0,"parking-f-disabled-avail":0,"help-for-hearing-imp":0,"help-for-blind":0,"general-help":0},"149-kaenguru-dschungel-gundermannstr.-16-04329-leipzig":{"category":"Bildung","title":"K\u00e4nguru (Dschungel)","longitude":12.46307,"latitude":51.35132,"entrance-suit-f-wheelchair":0,"lift-suit-f-wheelchair":0,"lift-avail":0,"toilet-avail":0,"toilet-suit-f-wheelchair":0,"parking-avail":0,"parking-f-disabled-avail":0,"help-for-hearing-imp":0,"help-for-blind":0,"general-help":0},"150-kaenguru-holzhaeuser-strasse-holzhaeuser-str.-15-04299-leipzig":{"category":"Bildung","title":"K\u00e4nguru - Holzh\u00e4user Strasse","longitude":12.4113546,"latitude":51.3193207,"entrance-suit-f-wheelchair":0,"lift-suit-f-wheelchair":0,"lift-avail":0,"toilet-avail":0,"toilet-suit-f-wheelchair":0,"parking-avail":0,"parking-f-disabled-avail":0,"help-for-hearing-imp":0,"help-for-blind":0,"general-help":0},"151-kaenguru-richard-lehmann-strasse-richard-lehmann-str.-28-30-04275-leipzig":{"category":"Bildung","title":"K\u00e4nguru - Richard-Lehmann-Strasse","longitude":12.3709566,"latitude":51.3144861,"entrance-suit-f-wheelchair":0,"lift-suit-f-wheelchair":0,"lift-avail":0,"toilet-avail":0,"toilet-suit-f-wheelchair":0,"parking-avail":0,"parking-f-disabled-avail":0,"help-for-hearing-imp":0,"help-for-blind":0,"general-help":0},"152-kantatenweg-kantatenweg-41-a-04229-leipzig":{"category":"Bildung","title":"Kantatenweg","longitude":12.33363,"latitude":51.31817,"entrance-suit-f-wheelchair":0,"lift-suit-f-wheelchair":0,"lift-avail":0,"toilet-avail":0,"toilet-suit-f-wheelchair":0,"parking-avail":0,"parking-f-disabled-avail":0,"help-for-hearing-imp":0,"help-for-blind":0,"general-help":0},"153-kinderland-garskestr.-17-04205-leipzig":{"category":"Bildung","title":"Kinderland","longitude":12.28779,"latitude":51.32586,"entrance-suit-f-wheelchair":0,"lift-suit-f-wheelchair":0,"lift-avail":0,"toilet-avail":0,"toilet-suit-f-wheelchair":0,"parking-avail":0,"parking-f-disabled-avail":0,"help-for-hearing-imp":0,"help-for-blind":0,"general-help":0},"154-kitamo-mothesstr.-2-04129-leipzig":{"category":"Bildung","title":"KITAMO","longitude":12.38379,"latitude":51.37316,"entrance-suit-f-wheelchair":0,"lift-suit-f-wheelchair":0,"lift-avail":0,"toilet-avail":0,"toilet-suit-f-wheelchair":0,"parking-avail":0,"parking-f-disabled-avail":0,"help-for-hearing-imp":0,"help-for-blind":0,"general-help":0},"155-kleiner-kiebitz-bisamstr.-17-04329-leipzig":{"category":"Bildung","title":"Kleiner Kiebitz","longitude":12.4721116,"latitude":51.3564623,"entrance-suit-f-wheelchair":0,"lift-suit-f-wheelchair":0,"lift-avail":0,"toilet-avail":0,"toilet-suit-f-wheelchair":0,"parking-avail":0,"parking-f-disabled-avail":0,"help-for-hearing-imp":0,"help-for-blind":0,"general-help":0},"156-kleiner-muck-tarostr.-9-04103-leipzig":{"category":"Bildung","title":"Kleiner Muck","longitude":12.387026,"latitude":51.3242817,"entrance-suit-f-wheelchair":0,"lift-suit-f-wheelchair":0,"lift-avail":0,"toilet-avail":0,"toilet-suit-f-wheelchair":0,"parking-avail":0,"parking-f-disabled-avail":0,"help-for-hearing-imp":0,"help-for-blind":0,"general-help":0},"157-knirpsenstadt-hermann-liebmann-str.-99-04315-leipzig":{"category":"Bildung","title":"Knirpsenstadt","longitude":12.4062004,"latitude":51.347466,"entrance-suit-f-wheelchair":1,"lift-suit-f-wheelchair":0,"lift-avail":0,"toilet-avail":1,"toilet-suit-f-wheelchair":0,"parking-avail":1,"parking-f-disabled-avail":1,"help-for-hearing-imp":0,"help-for-blind":0,"general-help":1},"158-lipsiland-herlosssohnstr.-20-eg-04155-leipzig":{"category":"Bildung","title":"Lipsiland","longitude":12.35509,"latitude":51.36017,"entrance-suit-f-wheelchair":2,"lift-suit-f-wheelchair":0,"lift-avail":0,"toilet-avail":1,"toilet-suit-f-wheelchair":2,"parking-avail":1,"parking-f-disabled-avail":1,"help-for-hearing-imp":0,"help-for-blind":0,"general-help":1},"159-lobstaedter-strasse-lobstaedter-str.-14-a-04279-leipzig":{"category":"Bildung","title":"Lobst\u00e4dter Stra\u00dfe","longitude":12.3891372,"latitude":51.2980356,"entrance-suit-f-wheelchair":0,"lift-suit-f-wheelchair":0,"lift-avail":0,"toilet-avail":0,"toilet-suit-f-wheelchair":0,"parking-avail":0,"parking-f-disabled-avail":0,"help-for-hearing-imp":0,"help-for-blind":0,"general-help":0},"160-loessnig-ii-kurt-tucholsky-str.-12-04279-leipzig":{"category":"Bildung","title":"L\u00f6\u00dfnig II","longitude":12.4033265,"latitude":51.3019471,"entrance-suit-f-wheelchair":0,"lift-suit-f-wheelchair":0,"lift-avail":0,"toilet-avail":0,"toilet-suit-f-wheelchair":0,"parking-avail":0,"parking-f-disabled-avail":0,"help-for-hearing-imp":0,"help-for-blind":0,"general-help":0},"161-maerchenland-kinderkrippe-und-kindergarten-gerhard-ellrodt-str.-17-a-04249-leipzig":{"category":"Bildung","title":"M\u00e4rchenland - Kinderkrippe und Kindergarten","longitude":12.3214081,"latitude":51.2996183,"entrance-suit-f-wheelchair":0,"lift-suit-f-wheelchair":0,"lift-avail":0,"toilet-avail":0,"toilet-suit-f-wheelchair":0,"parking-avail":0,"parking-f-disabled-avail":0,"help-for-hearing-imp":0,"help-for-blind":0,"general-help":0},"162-marienkirchen-kindertagesstaette-ev.-luth.-sommerfelder-str.-29-04299-leipzig":{"category":"Bildung","title":"Marienkirchen Kindertagesst\u00e4tte (ev.-luth.)","longitude":12.4274998,"latitude":51.3209338,"entrance-suit-f-wheelchair":0,"lift-suit-f-wheelchair":0,"lift-avail":0,"toilet-avail":0,"toilet-suit-f-wheelchair":0,"parking-avail":0,"parking-f-disabled-avail":0,"help-for-hearing-imp":0,"help-for-blind":0,"general-help":0},"163-max-und-moritz-kita-und-hort-gersterstr.-9_9a-04279-leipzig":{"category":"Bildung","title":"Max und Moritz (KiTa und Hort)","longitude":12.39014,"latitude":51.2949,"entrance-suit-f-wheelchair":0,"lift-suit-f-wheelchair":0,"lift-avail":0,"toilet-avail":0,"toilet-suit-f-wheelchair":0,"parking-avail":0,"parking-f-disabled-avail":0,"help-for-hearing-imp":0,"help-for-blind":0,"general-help":0},"164-mosaik-evangelische-kindertagesstaette-ferdinand-rhode-str.-17-a-04107-leipzig":{"category":"Bildung","title":"Mosaik - Evangelische Kindertagesst\u00e4tte","longitude":12.3662144,"latitude":51.3303967,"entrance-suit-f-wheelchair":1,"lift-suit-f-wheelchair":0,"lift-avail":0,"toilet-avail":1,"toilet-suit-f-wheelchair":1,"parking-avail":0,"parking-f-disabled-avail":0,"help-for-hearing-imp":0,"help-for-blind":0,"general-help":1},"165-naseweis-kinderhaus-joergen-schmidtchen-weg-4-04157-leipzig":{"category":"Bildung","title":"Naseweis - Kinderhaus","longitude":12.359673,"latitude":51.3799062,"entrance-suit-f-wheelchair":0,"lift-suit-f-wheelchair":0,"lift-avail":0,"toilet-avail":0,"toilet-suit-f-wheelchair":0,"parking-avail":0,"parking-f-disabled-avail":0,"help-for-hearing-imp":0,"help-for-blind":0,"general-help":0},"166-naturkindertagesstaette-sonnenschein-diezmannstr.-87-a-04207-leipzig":{"category":"Bildung","title":"Naturkindertagesst\u00e4tte Sonnenschein","longitude":12.3171773,"latitude":51.3157149,"entrance-suit-f-wheelchair":0,"lift-suit-f-wheelchair":0,"lift-avail":0,"toilet-avail":0,"toilet-suit-f-wheelchair":0,"parking-avail":0,"parking-f-disabled-avail":0,"help-for-hearing-imp":0,"help-for-blind":0,"general-help":0},"167-pfiffikus-bertholt-brecht-str.-11-04347-leipzig":{"category":"Bildung","title":"Pfiffikus","longitude":12.4294967,"latitude":51.3565485,"entrance-suit-f-wheelchair":0,"lift-suit-f-wheelchair":0,"lift-avail":0,"toilet-avail":0,"toilet-suit-f-wheelchair":0,"parking-avail":0,"parking-f-disabled-avail":0,"help-for-hearing-imp":0,"help-for-blind":0,"general-help":0},"168-puenktchen-hans-otto-str.-2b-04279-leipzig":{"category":"Bildung","title":"P\u00fcnktchen","longitude":12.39385,"latitude":51.30261,"entrance-suit-f-wheelchair":0,"lift-suit-f-wheelchair":0,"lift-avail":0,"toilet-avail":0,"toilet-suit-f-wheelchair":0,"parking-avail":0,"parking-f-disabled-avail":0,"help-for-hearing-imp":0,"help-for-blind":0,"general-help":0},"169-rappelkiste-zweinanundorfer-str.-167-flachbau-04316-leipzig":{"category":"Bildung","title":"Rappelkiste","longitude":12.4533516,"latitude":51.3245396,"entrance-suit-f-wheelchair":1,"lift-suit-f-wheelchair":0,"lift-avail":0,"toilet-avail":1,"toilet-suit-f-wheelchair":0,"parking-avail":1,"parking-f-disabled-avail":0,"help-for-hearing-imp":0,"help-for-blind":0,"general-help":0},"170-raxlifaxli-kinderkrippe-und-kindergarten-koenigsteinstr.-70-04207-leipzig":{"category":"Bildung","title":"Raxlifaxli - Kinderkrippe und Kindergarten","longitude":12.2643869,"latitude":51.3054326,"entrance-suit-f-wheelchair":0,"lift-suit-f-wheelchair":0,"lift-avail":0,"toilet-avail":0,"toilet-suit-f-wheelchair":0,"parking-avail":0,"parking-f-disabled-avail":0,"help-for-hearing-imp":0,"help-for-blind":0,"general-help":0},"171-regenbogen-kindergarten-und-hort-kantor-andrae-str.-16-04178-leipzig-boehlitz-ehrenberg":{"category":"Bildung","title":"Regenbogen - Kindergarten und Hort","longitude":12.2882268,"latitude":51.3546033,"entrance-suit-f-wheelchair":1,"lift-suit-f-wheelchair":0,"lift-avail":0,"toilet-avail":1,"toilet-suit-f-wheelchair":0,"parking-avail":0,"parking-f-disabled-avail":0,"help-for-hearing-imp":1,"help-for-blind":0,"general-help":0},"172-schuetzstrasse-schuetzstr.-2-04179-leipzig":{"category":"Bildung","title":"Sch\u00fctzstra\u00dfe","longitude":12.32063,"latitude":51.35304,"entrance-suit-f-wheelchair":0,"lift-suit-f-wheelchair":0,"lift-avail":0,"toilet-avail":0,"toilet-suit-f-wheelchair":0,"parking-avail":0,"parking-f-disabled-avail":0,"help-for-hearing-imp":0,"help-for-blind":0,"general-help":0},"173-seumestrasse-seumestr.-99-04249-leipzig":{"category":"Bildung","title":"Seumestra\u00dfe","longitude":12.3117944,"latitude":51.2782144,"entrance-suit-f-wheelchair":0,"lift-suit-f-wheelchair":0,"lift-avail":0,"toilet-avail":0,"toilet-suit-f-wheelchair":0,"parking-avail":0,"parking-f-disabled-avail":0,"help-for-hearing-imp":0,"help-for-blind":0,"general-help":0},"174-spatzennest-poserstr.-55-04347-leipzig":{"category":"Bildung","title":"Spatzennest","longitude":12.42545,"latitude":51.35373,"entrance-suit-f-wheelchair":0,"lift-suit-f-wheelchair":0,"lift-avail":0,"toilet-avail":1,"toilet-suit-f-wheelchair":0,"parking-avail":1,"parking-f-disabled-avail":1,"help-for-hearing-imp":0,"help-for-blind":0,"general-help":0},"175-spielhaus-an-der-linde-rossmarktstr.-6-04177-leipzig":{"category":"Bildung","title":"Spielhaus an der Linde","longitude":12.3353134,"latitude":51.3395489,"entrance-suit-f-wheelchair":0,"lift-suit-f-wheelchair":0,"lift-avail":0,"toilet-avail":0,"toilet-suit-f-wheelchair":0,"parking-avail":0,"parking-f-disabled-avail":0,"help-for-hearing-imp":0,"help-for-blind":0,"general-help":0},"176-spielhaus-thekla-stollberger-str.-8-04349-leipzig":{"category":"Bildung","title":"Spielhaus Thekla","longitude":12.4336116,"latitude":51.3785676,"entrance-suit-f-wheelchair":0,"lift-suit-f-wheelchair":0,"lift-avail":0,"toilet-avail":0,"toilet-suit-f-wheelchair":0,"parking-avail":0,"parking-f-disabled-avail":0,"help-for-hearing-imp":0,"help-for-blind":0,"general-help":0},"177-st.-martin-christliche-integrations-kindertagesstaette-am-kirschberg-37-04209-leipzig":{"category":"Bildung","title":"St. Martin - Christliche Integrations-Kindertagesst\u00e4tte","longitude":12.2820472,"latitude":51.3185624,"entrance-suit-f-wheelchair":0,"lift-suit-f-wheelchair":0,"lift-avail":0,"toilet-avail":0,"toilet-suit-f-wheelchair":0,"parking-avail":0,"parking-f-disabled-avail":0,"help-for-hearing-imp":0,"help-for-blind":0,"general-help":0},"178-theodor-neubauer-strasse-theodor-neubauer-str.-18-04318-leipzig":{"category":"Bildung","title":"Theodor-Neubauer-Stra\u00dfe","longitude":12.4135,"latitude":51.33533,"entrance-suit-f-wheelchair":0,"lift-suit-f-wheelchair":0,"lift-avail":0,"toilet-avail":0,"toilet-suit-f-wheelchair":0,"parking-avail":0,"parking-f-disabled-avail":0,"help-for-hearing-imp":0,"help-for-blind":0,"general-help":0},"179-villa-kunterbunt-oststr.-185-04317-leipzig":{"category":"Bildung","title":"Villa Kunterbunt","longitude":12.42175,"latitude":51.32342,"entrance-suit-f-wheelchair":0,"lift-suit-f-wheelchair":0,"lift-avail":0,"toilet-avail":0,"toilet-suit-f-wheelchair":0,"parking-avail":0,"parking-f-disabled-avail":0,"help-for-hearing-imp":0,"help-for-blind":0,"general-help":0},"180-waldorf-kindergarten-joergen-schmidtchen-weg-6-04157-leipzig":{"category":"Bildung","title":"Waldorf-Kindergarten","longitude":12.361111,"latitude":51.3798985,"entrance-suit-f-wheelchair":0,"lift-suit-f-wheelchair":0,"lift-avail":0,"toilet-avail":0,"toilet-suit-f-wheelchair":0,"parking-avail":0,"parking-f-disabled-avail":0,"help-for-hearing-imp":0,"help-for-blind":0,"general-help":0},"181-wolkser-kinderland-gueldengossaer-str.-6-8-04288-leipzig":{"category":"Bildung","title":"Wolkser Kinderland","longitude":12.459114,"latitude":51.2822459,"entrance-suit-f-wheelchair":0,"lift-suit-f-wheelchair":0,"lift-avail":0,"toilet-avail":0,"toilet-suit-f-wheelchair":0,"parking-avail":0,"parking-f-disabled-avail":0,"help-for-hearing-imp":0,"help-for-blind":0,"general-help":0},"182-wurzner-strasse-wurzner-str.-122-04315-leipzig":{"category":"Bildung","title":"Wurzner Strasse","longitude":12.4184606,"latitude":51.3438095,"entrance-suit-f-wheelchair":0,"lift-suit-f-wheelchair":0,"lift-avail":0,"toilet-avail":0,"toilet-suit-f-wheelchair":0,"parking-avail":0,"parking-f-disabled-avail":0,"help-for-hearing-imp":0,"help-for-blind":0,"general-help":0},"183-zwergenland-baalsdorfer-str.-130-04316-leipzig-moelkau":{"category":"Bildung","title":"Zwergenland","longitude":12.4811597,"latitude":51.3260724,"entrance-suit-f-wheelchair":1,"lift-suit-f-wheelchair":0,"lift-avail":0,"toilet-avail":0,"toilet-suit-f-wheelchair":0,"parking-avail":0,"parking-f-disabled-avail":0,"help-for-hearing-imp":0,"help-for-blind":0,"general-help":0},"184-evangelisches-schulzentrum-ganztagsangebote-schulzes-box-hohe-str.-23-04107-leipzig":{"category":"Bildung","title":"Evangelisches Schulzentrum - Ganztagsangebote (Schulzes Box)","longitude":12.376986,"latitude":51.3293007,"entrance-suit-f-wheelchair":2,"lift-suit-f-wheelchair":1,"lift-avail":0,"toilet-avail":1,"toilet-suit-f-wheelchair":2,"parking-avail":1,"parking-f-disabled-avail":0,"help-for-hearing-imp":0,"help-for-blind":0,"general-help":0},"185-biedermann-biedermannstr.-23-04277-leipzig":{"category":"Bildung","title":"Biedermann","longitude":12.3761079,"latitude":51.3077112,"entrance-suit-f-wheelchair":1,"lift-suit-f-wheelchair":0,"lift-avail":1,"toilet-avail":1,"toilet-suit-f-wheelchair":1,"parking-avail":0,"parking-f-disabled-avail":0,"help-for-hearing-imp":1,"help-for-blind":0,"general-help":1},"186-die-wasserfroesche-an-der-querbreite-4-04129-leipzig":{"category":"Bildung","title":"Die Wasserfr\u00f6sche","longitude":12.3874,"latitude":51.37097,"entrance-suit-f-wheelchair":2,"lift-suit-f-wheelchair":1,"lift-avail":0,"toilet-avail":1,"toilet-suit-f-wheelchair":1,"parking-avail":1,"parking-f-disabled-avail":1,"help-for-hearing-imp":0,"help-for-blind":0,"general-help":0},"187-dr.-baerchen-berthastr.-17-04357-leipzig":{"category":"Bildung","title":"Dr. B\u00e4rchen","longitude":12.40499,"latitude":51.3646,"entrance-suit-f-wheelchair":2,"lift-suit-f-wheelchair":0,"lift-avail":0,"toilet-avail":0,"toilet-suit-f-wheelchair":2,"parking-avail":0,"parking-f-disabled-avail":0,"help-for-hearing-imp":0,"help-for-blind":0,"general-help":0},"188-familiengarten-schenkendorfstr.-10-04275-leipzig":{"category":"Bildung","title":"Familiengarten","longitude":12.371178,"latitude":51.3243328,"entrance-suit-f-wheelchair":1,"lift-suit-f-wheelchair":0,"lift-avail":1,"toilet-avail":1,"toilet-suit-f-wheelchair":1,"parking-avail":0,"parking-f-disabled-avail":0,"help-for-hearing-imp":0,"help-for-blind":0,"general-help":1},"189-kleine-fuechse-frohburger-str.-33-d-04277-leipzig":{"category":"Bildung","title":"Kleine F\u00fcchse","longitude":12.3811982,"latitude":51.3110526,"entrance-suit-f-wheelchair":2,"lift-suit-f-wheelchair":0,"lift-avail":0,"toilet-avail":1,"toilet-suit-f-wheelchair":2,"parking-avail":1,"parking-f-disabled-avail":1,"help-for-hearing-imp":1,"help-for-blind":0,"general-help":1},"190-maerchenwiese-heilpaedagogische-kindertagesstaette-an-der-maerchenwiese-3-04277-leipzig":{"category":"Bildung","title":"M\u00e4rchenwiese - Heilp\u00e4dagogische Kindertagesst\u00e4tte","longitude":12.39306,"latitude":51.30574,"entrance-suit-f-wheelchair":1,"lift-suit-f-wheelchair":0,"lift-avail":0,"toilet-avail":1,"toilet-suit-f-wheelchair":0,"parking-avail":1,"parking-f-disabled-avail":1,"help-for-hearing-imp":1,"help-for-blind":0,"general-help":1},"191-montessori-kinderhaus-andromedaweg-25-04205-leipzig":{"category":"Bildung","title":"Montessori-Kinderhaus","longitude":12.26897,"latitude":51.3194618,"entrance-suit-f-wheelchair":2,"lift-suit-f-wheelchair":0,"lift-avail":0,"toilet-avail":0,"toilet-suit-f-wheelchair":1,"parking-avail":0,"parking-f-disabled-avail":0,"help-for-hearing-imp":0,"help-for-blind":0,"general-help":0},"192-nasch-odermannstr.-4-04177-leipzig":{"category":"Bildung","title":"nasch","longitude":12.33231,"latitude":51.33711,"entrance-suit-f-wheelchair":2,"lift-suit-f-wheelchair":1,"lift-avail":0,"toilet-avail":1,"toilet-suit-f-wheelchair":0,"parking-avail":0,"parking-f-disabled-avail":0,"help-for-hearing-imp":0,"help-for-blind":0,"general-help":1},"193-prisma-demmeringstr.-125-04179-leipzig":{"category":"Bildung","title":"Prisma","longitude":12.3167643,"latitude":51.3328987,"entrance-suit-f-wheelchair":2,"lift-suit-f-wheelchair":0,"lift-avail":0,"toilet-avail":1,"toilet-suit-f-wheelchair":2,"parking-avail":1,"parking-f-disabled-avail":1,"help-for-hearing-imp":0,"help-for-blind":0,"general-help":1},"194-waldorfschulkindergarten-friedrichshafner-str.-25-04357-leipzig":{"category":"Bildung","title":"Waldorfschulkindergarten","longitude":12.4067229,"latitude":51.3674068,"entrance-suit-f-wheelchair":2,"lift-suit-f-wheelchair":0,"lift-avail":0,"toilet-avail":1,"toilet-suit-f-wheelchair":1,"parking-avail":1,"parking-f-disabled-avail":1,"help-for-hearing-imp":0,"help-for-blind":0,"general-help":1},"195-miniuniversum-liebigstr.-22-b-04103-leipzig":{"category":"Bildung","title":"miniuniversum","longitude":12.3897224,"latitude":51.3312018,"entrance-suit-f-wheelchair":1,"lift-suit-f-wheelchair":1,"lift-avail":0,"toilet-avail":1,"toilet-suit-f-wheelchair":1,"parking-avail":1,"parking-f-disabled-avail":1,"help-for-hearing-imp":1,"help-for-blind":0,"general-help":1},"196-nathanael-evangelische-kindertagesstaette-rietschelstr.-12-04177-leipzig":{"category":"Bildung","title":"Nathanael - Evangelische Kindertagesst\u00e4tte","longitude":12.33283,"latitude":51.33959,"entrance-suit-f-wheelchair":1,"lift-suit-f-wheelchair":1,"lift-avail":0,"toilet-avail":1,"toilet-suit-f-wheelchair":2,"parking-avail":0,"parking-f-disabled-avail":0,"help-for-hearing-imp":0,"help-for-blind":0,"general-help":1},"197-gohliser-muehle-kindertagesstaette-platnerstr.-11-04155-leipzig":{"category":"Bildung","title":"Gohliser M\u00fchle - Kindertagesst\u00e4tte","longitude":12.3604265,"latitude":51.3587471,"entrance-suit-f-wheelchair":2,"lift-suit-f-wheelchair":0,"lift-avail":0,"toilet-avail":1,"toilet-suit-f-wheelchair":1,"parking-avail":1,"parking-f-disabled-avail":1,"help-for-hearing-imp":0,"help-for-blind":0,"general-help":1},"198-astronomisches-zentrum-schkeuditz-bergbreite-1-04435-schkeuditz":{"category":"Bildung","title":"Astronomisches Zentrum Schkeuditz","longitude":12.22558,"latitude":51.39554,"entrance-suit-f-wheelchair":0,"lift-suit-f-wheelchair":0,"lift-avail":0,"toilet-avail":1,"toilet-suit-f-wheelchair":0,"parking-avail":1,"parking-f-disabled-avail":0,"help-for-hearing-imp":0,"help-for-blind":0,"general-help":1},"199-aula-grundschule-engelsdorf-christoph-arnold-gaswerksweg-1-04439-leipzig-engelsdorf":{"category":"Bildung","title":"Aula Grundschule Engelsdorf \"Christoph Arnold\"","longitude":12.48812,"latitude":51.34063,"entrance-suit-f-wheelchair":2,"lift-suit-f-wheelchair":0,"lift-avail":0,"toilet-avail":1,"toilet-suit-f-wheelchair":0,"parking-avail":1,"parking-f-disabled-avail":0,"help-for-hearing-imp":0,"help-for-blind":0,"general-help":1},"200-ausbildungszentrum-fuer-partner-hunde-fuer-behinderte-weitwoerth-1-a-5151-nussdorf-bei-salzburg":{"category":"Bildung","title":"Ausbildungszentrum f\u00fcr \"Partner-Hunde f\u00fcr Behinderte\"","longitude":12.966752,"latitude":47.9247877,"entrance-suit-f-wheelchair":2,"lift-suit-f-wheelchair":0,"lift-avail":0,"toilet-avail":0,"toilet-suit-f-wheelchair":0,"parking-avail":0,"parking-f-disabled-avail":0,"help-for-hearing-imp":1,"help-for-blind":0,"general-help":0},"201-berufliches-schulzentrum-4-geithainer-str.-58-04328-leipzig":{"category":"Bildung","title":"Berufliches Schulzentrum 4","longitude":12.4380791,"latitude":51.3420356,"entrance-suit-f-wheelchair":0,"lift-suit-f-wheelchair":0,"lift-avail":0,"toilet-avail":0,"toilet-suit-f-wheelchair":0,"parking-avail":0,"parking-f-disabled-avail":0,"help-for-hearing-imp":0,"help-for-blind":0,"general-help":0},"202-berufsfoerderungswerk-leipzig-ggmbh-georg-schumann-str.-146-04159-leipzig":{"category":"Bildung","title":"Berufsf\u00f6rderungswerk Leipzig gGmbH","longitude":12.35285,"latitude":51.36569,"entrance-suit-f-wheelchair":2,"lift-suit-f-wheelchair":1,"lift-avail":0,"toilet-avail":1,"toilet-suit-f-wheelchair":0,"parking-avail":1,"parking-f-disabled-avail":1,"help-for-hearing-imp":0,"help-for-blind":0,"general-help":1},"203-freie-waldorfschule-leipzig-berthastr.-15-04357-leipzig":{"category":"Bildung","title":"Freie Waldorfschule Leipzig","longitude":12.40576,"latitude":51.36504,"entrance-suit-f-wheelchair":0,"lift-suit-f-wheelchair":0,"lift-avail":0,"toilet-avail":1,"toilet-suit-f-wheelchair":0,"parking-avail":1,"parking-f-disabled-avail":0,"help-for-hearing-imp":0,"help-for-blind":0,"general-help":1},"204-igelschutz-zentrum-hornstr.-9-04249-leipzig":{"category":"Bildung","title":"Igelschutz-Zentrum","longitude":12.3287351,"latitude":51.3063693,"entrance-suit-f-wheelchair":0,"lift-suit-f-wheelchair":0,"lift-avail":0,"toilet-avail":0,"toilet-suit-f-wheelchair":0,"parking-avail":1,"parking-f-disabled-avail":0,"help-for-hearing-imp":0,"help-for-blind":0,"general-help":0},"205-musikschule-leipzig-johann-sebastian-bach-petersstr.-43-04109-leipzig":{"category":"Bildung","title":"Musikschule Leipzig  \" Johann Sebastian Bach\"","longitude":12.3755295,"latitude":51.3369422,"entrance-suit-f-wheelchair":2,"lift-suit-f-wheelchair":0,"lift-avail":1,"toilet-avail":1,"toilet-suit-f-wheelchair":2,"parking-avail":1,"parking-f-disabled-avail":1,"help-for-hearing-imp":0,"help-for-blind":0,"general-help":1},"206-schulbiologiezentrum-botanischer-lehrgarten-schleussiger-weg-1-04275-leipzig":{"category":"Bildung","title":"Schulbiologiezentrum - Botanischer Lehrgarten","longitude":12.3590076,"latitude":51.3208882,"entrance-suit-f-wheelchair":0,"lift-suit-f-wheelchair":0,"lift-avail":0,"toilet-avail":1,"toilet-suit-f-wheelchair":0,"parking-avail":1,"parking-f-disabled-avail":0,"help-for-hearing-imp":0,"help-for-blind":0,"general-help":1},"207-universitaet-leipzig-jahnallee-59-haus-1-t-349-einfahrt-marschner-str.-04109-leipzig":{"category":"Bildung","title":"Universit\u00e4t Leipzig","longitude":12.3558472,"latitude":51.337525,"entrance-suit-f-wheelchair":0,"lift-suit-f-wheelchair":0,"lift-avail":0,"toilet-avail":0,"toilet-suit-f-wheelchair":0,"parking-avail":1,"parking-f-disabled-avail":0,"help-for-hearing-imp":0,"help-for-blind":0,"general-help":1},"208-belantis-vergnuegungspark-leipzig-zur-weissen-mark-1-04249-leipzig":{"category":"Bildung","title":"BELANTIS Vergn\u00fcgungspark Leipzig","longitude":12.3152396,"latitude":51.2537164,"entrance-suit-f-wheelchair":2,"lift-suit-f-wheelchair":0,"lift-avail":0,"toilet-avail":1,"toilet-suit-f-wheelchair":2,"parking-avail":1,"parking-f-disabled-avail":1,"help-for-hearing-imp":0,"help-for-blind":0,"general-help":1},"209-bowl-play-leipzig-handelsstr.-4-04356-leipzig":{"category":"Bildung","title":"Bowl Play Leipzig","longitude":12.3996117,"latitude":51.4007186,"entrance-suit-f-wheelchair":2,"lift-suit-f-wheelchair":0,"lift-avail":0,"toilet-avail":1,"toilet-suit-f-wheelchair":1,"parking-avail":1,"parking-f-disabled-avail":0,"help-for-hearing-imp":0,"help-for-blind":0,"general-help":1},"210-bowling-center-blue-white-markranstaedter-str.-1-04229-leipzig":{"category":"Bildung","title":"Bowling-Center Blue-White","longitude":12.331605,"latitude":51.3245011,"entrance-suit-f-wheelchair":2,"lift-suit-f-wheelchair":0,"lift-avail":0,"toilet-avail":1,"toilet-suit-f-wheelchair":0,"parking-avail":1,"parking-f-disabled-avail":1,"help-for-hearing-imp":1,"help-for-blind":0,"general-help":1},"211-buergerverein-bachviertel-e.v.-kaethe-kollwitz-str.-107-04109-leipzig":{"category":"Bildung","title":"B\u00fcrgerverein \"Bachviertel\" e.V.","longitude":12.3534387,"latitude":51.334091,"entrance-suit-f-wheelchair":0,"lift-suit-f-wheelchair":0,"lift-avail":0,"toilet-avail":1,"toilet-suit-f-wheelchair":0,"parking-avail":0,"parking-f-disabled-avail":0,"help-for-hearing-imp":0,"help-for-blind":0,"general-help":1},"212-club-helmholtzstrasse-helmholtzstr.-4-6-04177-leipzig":{"category":"Bildung","title":"Club Helmholtzstra\u00dfe","longitude":12.3292703,"latitude":51.3328957,"entrance-suit-f-wheelchair":0,"lift-suit-f-wheelchair":0,"lift-avail":0,"toilet-avail":1,"toilet-suit-f-wheelchair":0,"parking-avail":1,"parking-f-disabled-avail":0,"help-for-hearing-imp":0,"help-for-blind":0,"general-help":1},"213-club-sellerhausen-puechauer-str.-4-04318-leipzig":{"category":"Bildung","title":"Club Sellerhausen","longitude":12.4279596,"latitude":51.345193,"entrance-suit-f-wheelchair":1,"lift-suit-f-wheelchair":0,"lift-avail":0,"toilet-avail":1,"toilet-suit-f-wheelchair":0,"parking-avail":1,"parking-f-disabled-avail":0,"help-for-hearing-imp":0,"help-for-blind":0,"general-help":0},"214-conne-island-caf\u00e9-und-saal-koburger-str.-3-042770-leipzig":{"category":"Bildung","title":"CONNE ISLAND - Caf\u00e9 und Saal","longitude":12.37458,"latitude":51.30239,"entrance-suit-f-wheelchair":1,"lift-suit-f-wheelchair":0,"lift-avail":0,"toilet-avail":1,"toilet-suit-f-wheelchair":1,"parking-avail":1,"parking-f-disabled-avail":0,"help-for-hearing-imp":0,"help-for-blind":0,"general-help":0},"215-die-villa-lessingstr.-7-04109-leipzig":{"category":"Bildung","title":"DIE VILLA","longitude":12.366829,"latitude":51.3421318,"entrance-suit-f-wheelchair":2,"lift-suit-f-wheelchair":0,"lift-avail":1,"toilet-avail":1,"toilet-suit-f-wheelchair":2,"parking-avail":1,"parking-f-disabled-avail":1,"help-for-hearing-imp":0,"help-for-blind":0,"general-help":1},"216-freizeittreff-rabet-konradstr.-26-04315-leipzig":{"category":"Bildung","title":"Freizeittreff RABET","longitude":12.4034783,"latitude":51.344159,"entrance-suit-f-wheelchair":2,"lift-suit-f-wheelchair":0,"lift-avail":0,"toilet-avail":1,"toilet-suit-f-wheelchair":0,"parking-avail":1,"parking-f-disabled-avail":0,"help-for-hearing-imp":0,"help-for-blind":0,"general-help":1},"217-garage-technologiecentrum-fuer-jugendliche-ggmbh-karl-heine-str.-97-04229-leipzig":{"category":"Bildung","title":"GaraGe - Technologiecentrum f\u00fcr Jugendliche gGmbH","longitude":12.3291579,"latitude":51.3298688,"entrance-suit-f-wheelchair":1,"lift-suit-f-wheelchair":0,"lift-avail":1,"toilet-avail":1,"toilet-suit-f-wheelchair":1,"parking-avail":1,"parking-f-disabled-avail":1,"help-for-hearing-imp":0,"help-for-blind":1,"general-help":1},"218-geyserhaus-e.v.-graefestr.-25-04129-leipzig":{"category":"Bildung","title":"Geyserhaus e.V.","longitude":12.383437,"latitude":51.3727189,"entrance-suit-f-wheelchair":0,"lift-suit-f-wheelchair":0,"lift-avail":0,"toilet-avail":1,"toilet-suit-f-wheelchair":0,"parking-avail":1,"parking-f-disabled-avail":0,"help-for-hearing-imp":0,"help-for-blind":0,"general-help":1},"219-kinder-und-jugendfreizeitzentrum-holzhausen-arthur-polenz-str.-12-04288-leipzig":{"category":"Bildung","title":"Kinder- und Jugendfreizeitzentrum Holzhausen","longitude":12.45528,"latitude":51.30534,"entrance-suit-f-wheelchair":0,"lift-suit-f-wheelchair":0,"lift-avail":0,"toilet-avail":0,"toilet-suit-f-wheelchair":0,"parking-avail":1,"parking-f-disabled-avail":0,"help-for-hearing-imp":0,"help-for-blind":0,"general-help":0},"220-kirsche-offener-treff-ot-schulzeweg-11-linker-eingang-04347-leipzig":{"category":"Bildung","title":"Kirsche - Offener Treff (OT)","longitude":12.4239486,"latitude":51.358485,"entrance-suit-f-wheelchair":1,"lift-suit-f-wheelchair":0,"lift-avail":0,"toilet-avail":1,"toilet-suit-f-wheelchair":1,"parking-avail":1,"parking-f-disabled-avail":0,"help-for-hearing-imp":0,"help-for-blind":1,"general-help":1},"221-komm-haus-selliner-str.-17-04207-leipzig":{"category":"Bildung","title":"KOMM-Haus","longitude":12.2648281,"latitude":51.3135406,"entrance-suit-f-wheelchair":2,"lift-suit-f-wheelchair":0,"lift-avail":0,"toilet-avail":0,"toilet-suit-f-wheelchair":0,"parking-avail":0,"parking-f-disabled-avail":0,"help-for-hearing-imp":0,"help-for-blind":0,"general-help":0},"222-kreativzentrum-gruenau-garskestr.-17-1.-etage-04205-leipzig":{"category":"Bildung","title":"Kreativzentrum Gr\u00fcnau","longitude":12.28779,"latitude":51.32586,"entrance-suit-f-wheelchair":0,"lift-suit-f-wheelchair":0,"lift-avail":0,"toilet-avail":0,"toilet-suit-f-wheelchair":0,"parking-avail":1,"parking-f-disabled-avail":0,"help-for-hearing-imp":0,"help-for-blind":0,"general-help":0},"223-medienzentrum-leipzig-landesfilmdienst-sachsen-e.v.-karl-heine-str.-83-04229-leipzig":{"category":"Bildung","title":"Medienzentrum Leipzig - Landesfilmdienst Sachsen e.V.","longitude":12.3321498,"latitude":51.3307856,"entrance-suit-f-wheelchair":1,"lift-suit-f-wheelchair":0,"lift-avail":0,"toilet-avail":1,"toilet-suit-f-wheelchair":0,"parking-avail":1,"parking-f-disabled-avail":1,"help-for-hearing-imp":0,"help-for-blind":0,"general-help":0},"224-voelle-fzt-voelkerfreundschaft-stuttgarter-allee-9-04209-leipzig":{"category":"Bildung","title":"V\u00f6lle - FZT V\u00f6lkerfreundschaft","longitude":12.2915539,"latitude":51.3156074,"entrance-suit-f-wheelchair":2,"lift-suit-f-wheelchair":0,"lift-avail":0,"toilet-avail":1,"toilet-suit-f-wheelchair":1,"parking-avail":0,"parking-f-disabled-avail":0,"help-for-hearing-imp":0,"help-for-blind":0,"general-help":1},"225-werk-ii-glasblaeserei-kochstr.-132-04277-leipzig":{"category":"Bildung","title":"Werk II, Glasbl\u00e4serei","longitude":12.3716073,"latitude":51.3101281,"entrance-suit-f-wheelchair":1,"lift-suit-f-wheelchair":0,"lift-avail":0,"toilet-avail":1,"toilet-suit-f-wheelchair":2,"parking-avail":0,"parking-f-disabled-avail":0,"help-for-hearing-imp":0,"help-for-blind":0,"general-help":1},"226-werk-ii-halle-a-kochstr.-132-04277-leipzig":{"category":"Bildung","title":"Werk II, Halle A","longitude":12.3716073,"latitude":51.3101281,"entrance-suit-f-wheelchair":1,"lift-suit-f-wheelchair":0,"lift-avail":0,"toilet-avail":1,"toilet-suit-f-wheelchair":2,"parking-avail":0,"parking-f-disabled-avail":0,"help-for-hearing-imp":0,"help-for-blind":0,"general-help":1},"227-werk-ii-keramikwerkstatt-kochstr.-132-04277-leipzig":{"category":"Bildung","title":"Werk II, Keramikwerkstatt","longitude":12.3716073,"latitude":51.3101281,"entrance-suit-f-wheelchair":1,"lift-suit-f-wheelchair":0,"lift-avail":0,"toilet-avail":1,"toilet-suit-f-wheelchair":2,"parking-avail":0,"parking-f-disabled-avail":0,"help-for-hearing-imp":0,"help-for-blind":0,"general-help":1},"228-autokino-auf-der-alten-messe-prager-str.-_-alte-messe-04317-leipzig":{"category":"Bildung","title":"Autokino auf der alten Messe","longitude":12.4055689,"latitude":51.319998,"entrance-suit-f-wheelchair":2,"lift-suit-f-wheelchair":0,"lift-avail":0,"toilet-avail":0,"toilet-suit-f-wheelchair":0,"parking-avail":1,"parking-f-disabled-avail":0,"help-for-hearing-imp":0,"help-for-blind":0,"general-help":0},"229-cineplex-am-allee-center-ludwigsburger-str.-13-04209-leipzig":{"category":"Bildung","title":"Cineplex am ALLEE-CENTER","longitude":12.2893429,"latitude":51.3205873,"entrance-suit-f-wheelchair":2,"lift-suit-f-wheelchair":0,"lift-avail":1,"toilet-avail":1,"toilet-suit-f-wheelchair":2,"parking-avail":1,"parking-f-disabled-avail":1,"help-for-hearing-imp":1,"help-for-blind":1,"general-help":1},"230-cinestar-im-petersbogen-petersstr.-44-04109-leipzig":{"category":"Bildung","title":"CineStar im Petersbogen","longitude":12.3742164,"latitude":51.3375369,"entrance-suit-f-wheelchair":2,"lift-suit-f-wheelchair":1,"lift-avail":0,"toilet-avail":1,"toilet-suit-f-wheelchair":2,"parking-avail":0,"parking-f-disabled-avail":0,"help-for-hearing-imp":0,"help-for-blind":0,"general-help":1},"231-die-nato-soziokulturelles-zentrum-karl-liebknecht-str.-48-04275-leipzig":{"category":"Bildung","title":"die nato - Soziokulturelles Zentrum","longitude":12.37334,"latitude":51.325,"entrance-suit-f-wheelchair":2,"lift-suit-f-wheelchair":0,"lift-avail":0,"toilet-avail":1,"toilet-suit-f-wheelchair":2,"parking-avail":1,"parking-f-disabled-avail":0,"help-for-hearing-imp":0,"help-for-blind":0,"general-help":1},"232-kinobar-prager-fruehling-bernhard-goering-str.-152-04277-leipzig":{"category":"Bildung","title":"Kinobar Prager Fr\u00fchling","longitude":12.3761968,"latitude":51.3110022,"entrance-suit-f-wheelchair":1,"lift-suit-f-wheelchair":1,"lift-avail":0,"toilet-avail":1,"toilet-suit-f-wheelchair":1,"parking-avail":1,"parking-f-disabled-avail":1,"help-for-hearing-imp":0,"help-for-blind":0,"general-help":1},"233-passage-kinos-betriebs-gmbh-hainstr.-19-a-04109-leipzig":{"category":"Bildung","title":"Passage Kinos Betriebs GmbH","longitude":12.3728248,"latitude":51.3420941,"entrance-suit-f-wheelchair":0,"lift-suit-f-wheelchair":0,"lift-avail":0,"toilet-avail":1,"toilet-suit-f-wheelchair":1,"parking-avail":1,"parking-f-disabled-avail":1,"help-for-hearing-imp":0,"help-for-blind":0,"general-help":1},"234-uci-kinowelt-nova-eventis-merseburger-str.-17-a-06254-guenthersdorf":{"category":"Bildung","title":"UCI Kinowelt Nova Eventis","longitude":12.1748858,"latitude":51.3461277,"entrance-suit-f-wheelchair":2,"lift-suit-f-wheelchair":0,"lift-avail":0,"toilet-avail":1,"toilet-suit-f-wheelchair":1,"parking-avail":1,"parking-f-disabled-avail":0,"help-for-hearing-imp":0,"help-for-blind":0,"general-help":0},"235-arena-leipzig-am-sportforum-1-04105-leipzig":{"category":"Bildung","title":"ARENA Leipzig","longitude":12.3540784,"latitude":51.3421529,"entrance-suit-f-wheelchair":2,"lift-suit-f-wheelchair":0,"lift-avail":0,"toilet-avail":1,"toilet-suit-f-wheelchair":2,"parking-avail":1,"parking-f-disabled-avail":1,"help-for-hearing-imp":0,"help-for-blind":0,"general-help":1},"236-eventpalast-in-der-messehalle-16-puschstr.-10-04103-leipzig":{"category":"Bildung","title":"Eventpalast in der Messehalle 16","longitude":12.4000043,"latitude":51.3164616,"entrance-suit-f-wheelchair":1,"lift-suit-f-wheelchair":1,"lift-avail":0,"toilet-avail":1,"toilet-suit-f-wheelchair":0,"parking-avail":0,"parking-f-disabled-avail":0,"help-for-hearing-imp":1,"help-for-blind":1,"general-help":1},"237-gewandhaus-zu-leipzig-konzerthaus-augustusplatz-8-04109-leipzig":{"category":"Bildung","title":"Gewandhaus zu Leipzig - Konzerthaus","longitude":12.3804103,"latitude":51.3378206,"entrance-suit-f-wheelchair":2,"lift-suit-f-wheelchair":0,"lift-avail":1,"toilet-avail":1,"toilet-suit-f-wheelchair":1,"parking-avail":1,"parking-f-disabled-avail":1,"help-for-hearing-imp":1,"help-for-blind":1,"general-help":1},"238-gohliser-schloesschen-menckestr.-23-04155-leipzig":{"category":"Bildung","title":"Gohliser Schl\u00f6sschen","longitude":12.36458,"latitude":51.35678,"entrance-suit-f-wheelchair":1,"lift-suit-f-wheelchair":0,"lift-avail":0,"toilet-avail":1,"toilet-suit-f-wheelchair":1,"parking-avail":1,"parking-f-disabled-avail":0,"help-for-hearing-imp":0,"help-for-blind":0,"general-help":1},"239-gohliser-schloesschen-sommertheater-poetenweg-04155-leipzig":{"category":"Bildung","title":"Gohliser Schl\u00f6sschen - Sommertheater","longitude":12.3634564,"latitude":51.3562505,"entrance-suit-f-wheelchair":2,"lift-suit-f-wheelchair":0,"lift-avail":0,"toilet-avail":0,"toilet-suit-f-wheelchair":0,"parking-avail":0,"parking-f-disabled-avail":0,"help-for-hearing-imp":0,"help-for-blind":0,"general-help":1},"240-haus-auensee-konzertsaal-gustav-esche-str.-4-04159-leipzig":{"category":"Bildung","title":"Haus Auensee - Konzertsaal","longitude":12.315246,"latitude":51.3702683,"entrance-suit-f-wheelchair":2,"lift-suit-f-wheelchair":0,"lift-avail":0,"toilet-avail":1,"toilet-suit-f-wheelchair":1,"parking-avail":0,"parking-f-disabled-avail":0,"help-for-hearing-imp":0,"help-for-blind":0,"general-help":1},"241-haus-des-buches-gerichtsweg-28-04103-leipzig":{"category":"Bildung","title":"Haus des Buches","longitude":12.3921313,"latitude":51.3346828,"entrance-suit-f-wheelchair":2,"lift-suit-f-wheelchair":0,"lift-avail":1,"toilet-avail":1,"toilet-suit-f-wheelchair":1,"parking-avail":1,"parking-f-disabled-avail":1,"help-for-hearing-imp":1,"help-for-blind":0,"general-help":1},"242-haus-leipzig-elsterstr.-22-24-04109-leipzig":{"category":"Bildung","title":"HAUS LEIPZIG","longitude":12.3646862,"latitude":51.3404665,"entrance-suit-f-wheelchair":2,"lift-suit-f-wheelchair":1,"lift-avail":0,"toilet-avail":1,"toilet-suit-f-wheelchair":1,"parking-avail":1,"parking-f-disabled-avail":1,"help-for-hearing-imp":0,"help-for-blind":0,"general-help":1},"243-kohlrabizirkus-leipzig-an-den-tierkliniken-42-46-04103-leipzig":{"category":"Bildung","title":"Kohlrabizirkus Leipzig","longitude":12.3897898,"latitude":51.3194116,"entrance-suit-f-wheelchair":2,"lift-suit-f-wheelchair":0,"lift-avail":0,"toilet-avail":1,"toilet-suit-f-wheelchair":1,"parking-avail":1,"parking-f-disabled-avail":1,"help-for-hearing-imp":0,"help-for-blind":1,"general-help":1},"244-kongresshalle-am-zoo-pfaffendorfer-str.-31-04105-leipzig":{"category":"Bildung","title":"Kongresshalle am ZOO","longitude":12.3721819,"latitude":51.3498153,"entrance-suit-f-wheelchair":1,"lift-suit-f-wheelchair":0,"lift-avail":1,"toilet-avail":1,"toilet-suit-f-wheelchair":2,"parking-avail":1,"parking-f-disabled-avail":1,"help-for-hearing-imp":0,"help-for-blind":0,"general-help":0},"245-leipziger-messe-gmbh-neues-messegelaende-messeallee-1-04356-leipzig":{"category":"Bildung","title":"Leipziger Messe GmbH - Neues Messegel\u00e4nde","longitude":12.399242,"latitude":51.3956445,"entrance-suit-f-wheelchair":2,"lift-suit-f-wheelchair":1,"lift-avail":0,"toilet-avail":1,"toilet-suit-f-wheelchair":2,"parking-avail":1,"parking-f-disabled-avail":1,"help-for-hearing-imp":0,"help-for-blind":0,"general-help":1},"246-lofft-theaterhaus-lindenauer-markt-21-04177-leipzig":{"category":"Bildung","title":"Lofft - Theaterhaus","longitude":12.3332428,"latitude":51.3377819,"entrance-suit-f-wheelchair":2,"lift-suit-f-wheelchair":0,"lift-avail":0,"toilet-avail":1,"toilet-suit-f-wheelchair":1,"parking-avail":0,"parking-f-disabled-avail":0,"help-for-hearing-imp":0,"help-for-blind":0,"general-help":1},"247-parkbuehne-im-bretschneider-park-baaderstr.-_-ecke-kleiststr.-04157-leipzig":{"category":"Bildung","title":"Parkb\u00fchne im Bretschneider-Park","longitude":12.3805322,"latitude":51.3715458,"entrance-suit-f-wheelchair":2,"lift-suit-f-wheelchair":0,"lift-avail":0,"toilet-avail":1,"toilet-suit-f-wheelchair":0,"parking-avail":1,"parking-f-disabled-avail":0,"help-for-hearing-imp":0,"help-for-blind":0,"general-help":1},"248-parkbuehne-im-clara-zetkin-park-clara-zetkin-park-04207-leipzig":{"category":"Bildung","title":"Parkb\u00fchne im Clara-Zetkin-Park","longitude":12.359292,"latitude":51.3302543,"entrance-suit-f-wheelchair":2,"lift-suit-f-wheelchair":0,"lift-avail":0,"toilet-avail":1,"toilet-suit-f-wheelchair":0,"parking-avail":0,"parking-f-disabled-avail":0,"help-for-hearing-imp":0,"help-for-blind":0,"general-help":1},